[
  {
    "SID": 1001 ,
    "lat": 70.9331 ,
    "lon": -8.6667 ,
    "elev": 9.4 ,
    "name": "JAN MAYEN"
  },
  {
    "SID": 1002 ,
    "lat": 80.0592 ,
    "lon": 16.25 ,
    "elev": 8 ,
    "name": "VERLEGENHUKEN"
  },
  {
    "SID": 1003 ,
    "lat": 77 ,
    "lon": 15.5 ,
    "elev": 11.07 ,
    "name": "HORNSUND"
  },
  {
    "SID": 1004 ,
    "lat": 78.9167 ,
    "lon": 11.9331 ,
    "elev": 8 ,
    "name": "NY-ALESUND II"
  },
  {
    "SID": 1006 ,
    "lat": 78.2506 ,
    "lon": 22.8225 ,
    "elev": 14 ,
    "name": "EDGEOYA"
  },
  {
    "SID": 1007 ,
    "lat": 78.9228 ,
    "lon": 11.9331 ,
    "elev": 7.7 ,
    "name": "NY-ALESUND"
  },
  {
    "SID": 1008 ,
    "lat": 78.25 ,
    "lon": 15.4667 ,
    "elev": 26.82 ,
    "name": "SVALBARD AP"
  },
  {
    "SID": 1009 ,
    "lat": 80.6528 ,
    "lon": 25.0078 ,
    "elev": 5 ,
    "name": "KARL XII OYA"
  },
  {
    "SID": 1010 ,
    "lat": 69.3072 ,
    "lon": 16.1308 ,
    "elev": 13.1 ,
    "name": "ANDOYA"
  },
  {
    "SID": 1011 ,
    "lat": 80.0722 ,
    "lon": 31.5 ,
    "elev": 10 ,
    "name": "KVITOYA"
  },
  {
    "SID": 1014 ,
    "lat": 69.2344 ,
    "lon": 17.9031 ,
    "elev": 9 ,
    "name": "SENJA-LAUKHELLA"
  },
  {
    "SID": 1015 ,
    "lat": 69.6006 ,
    "lon": 17.8372 ,
    "elev": 14 ,
    "name": "HEKKINGEN LH"
  },
  {
    "SID": 1016 ,
    "lat": 78.9275 ,
    "lon": 28.8919 ,
    "elev": 20 ,
    "name": "KONGSOYA"
  },
  {
    "SID": 1017 ,
    "lat": 77.6886 ,
    "lon": 14.7839 ,
    "elev": 6 ,
    "name": "AKSELOYA"
  },
  {
    "SID": 1018 ,
    "lat": 69.2413 ,
    "lon": 16.003 ,
    "elev": 436 ,
    "name": ""
  },
  {
    "SID": 1019 ,
    "lat": 77.5289 ,
    "lon": 20.8297 ,
    "elev": 20 ,
    "name": "SVARTTANGEN"
  },
  {
    "SID": 1020 ,
    "lat": 76.4775 ,
    "lon": 16.5486 ,
    "elev": 10 ,
    "name": "SORKAPPOYA"
  },
  {
    "SID": 1023 ,
    "lat": 69.0589 ,
    "lon": 18.54 ,
    "elev": 76.8 ,
    "name": "BARDUFOSS"
  },
  {
    "SID": 1025 ,
    "lat": 69.6767 ,
    "lon": 18.9131 ,
    "elev": 8.8 ,
    "name": "TROMSO/LANGNES"
  },
  {
    "SID": 1026 ,
    "lat": 69.6536 ,
    "lon": 18.9367 ,
    "elev": 114.5 ,
    "name": "TROMSO"
  },
  {
    "SID": 1027 ,
    "lat": 69.6522 ,
    "lon": 18.9056 ,
    "elev": 20 ,
    "name": "TROMSO-HOLT"
  },
  {
    "SID": 1028 ,
    "lat": 74.5167 ,
    "lon": 19.0047 ,
    "elev": 18 ,
    "name": "BJORNOYA"
  },
  {
    "SID": 1033 ,
    "lat": 70.2456 ,
    "lon": 19.5003 ,
    "elev": 24.1 ,
    "name": "TORSVAG LH"
  },
  {
    "SID": 1035 ,
    "lat": 69.5589 ,
    "lon": 20.0939 ,
    "elev": 710 ,
    "name": "LYNGEN GJERDVASSBU"
  },
  {
    "SID": 1036 ,
    "lat": 69.37 ,
    "lon": 20.27 ,
    "elev": 5 ,
    "name": "---"
  },
  {
    "SID": 1037 ,
    "lat": 69.3861 ,
    "lon": 20.2594 ,
    "elev": 4.71 ,
    "name": "SKIBOTN 2"
  },
  {
    "SID": 1042 ,
    "lat": 70.607 ,
    "lon": 22.4428 ,
    "elev": 438 ,
    "name": ""
  },
  {
    "SID": 1043 ,
    "lat": 70.4103 ,
    "lon": 22.8194 ,
    "elev": 10 ,
    "name": "ROGNSUNDET"
  },
  {
    "SID": 1044 ,
    "lat": 70.4861 ,
    "lon": 22.1461 ,
    "elev": 6 ,
    "name": "HASVIK AP"
  },
  {
    "SID": 1045 ,
    "lat": 69.8336 ,
    "lon": 21.8842 ,
    "elev": 6 ,
    "name": "NORDSTRAUM I KVAENANGEN"
  },
  {
    "SID": 1046 ,
    "lat": 69.7886 ,
    "lon": 20.9553 ,
    "elev": 4.87 ,
    "name": "SORKJOSEN"
  },
  {
    "SID": 1047 ,
    "lat": 68.9967 ,
    "lon": 23.0333 ,
    "elev": 307.2 ,
    "name": "KAUTOKEINO"
  },
  {
    "SID": 1049 ,
    "lat": 69.9775 ,
    "lon": 23.3581 ,
    "elev": 2.7 ,
    "name": "ALTA LUFTHAVN"
  },
  {
    "SID": 1052 ,
    "lat": 70.6806 ,
    "lon": 23.6769 ,
    "elev": 79.24 ,
    "name": "HAMMERFEST AP"
  },
  {
    "SID": 1055 ,
    "lat": 71.0933 ,
    "lon": 23.9817 ,
    "elev": 14.22 ,
    "name": "FRUHOLMEN LH"
  },
  {
    "SID": 1057 ,
    "lat": 69.3669 ,
    "lon": 24.4331 ,
    "elev": 286 ,
    "name": "CUOVDDATMOHKKI"
  },
  {
    "SID": 1058 ,
    "lat": 69.5794 ,
    "lon": 23.5344 ,
    "elev": 381.06 ,
    "name": "SUOLOVUOPMI LULIT"
  },
  {
    "SID": 1059 ,
    "lat": 70.06 ,
    "lon": 24.9897 ,
    "elev": 7.62 ,
    "name": "BANAK"
  },
  {
    "SID": 1062 ,
    "lat": 76.5094 ,
    "lon": 25.0131 ,
    "elev": 10.2 ,
    "name": "HOPEN"
  },
  {
    "SID": 1065 ,
    "lat": 69.4633 ,
    "lon": 25.5022 ,
    "elev": 130.77 ,
    "name": "KARASJOK"
  },
  {
    "SID": 1068 ,
    "lat": 71.0106 ,
    "lon": 25.9781 ,
    "elev": 13.41 ,
    "name": "HONNINGSVAG AP"
  },
  {
    "SID": 1074 ,
    "lat": 71.0331 ,
    "lon": 27.8297 ,
    "elev": 13 ,
    "name": "MEHAMN AP"
  },
  {
    "SID": 1075 ,
    "lat": 70.3967 ,
    "lon": 28.1928 ,
    "elev": 11.2 ,
    "name": "RUSTEFJELBMA"
  },
  {
    "SID": 1076 ,
    "lat": 70.2122 ,
    "lon": 28.1586 ,
    "elev": 32 ,
    "name": ""
  },
  {
    "SID": 1078 ,
    "lat": 71.0839 ,
    "lon": 28.2178 ,
    "elev": 8 ,
    "name": "SLETTNES LH"
  },
  {
    "SID": 1082 ,
    "lat": 69.1469 ,
    "lon": 29.2439 ,
    "elev": 56 ,
    "name": ""
  },
  {
    "SID": 1083 ,
    "lat": 70.8708 ,
    "lon": 29.0347 ,
    "elev": 13 ,
    "name": "BERLEVAG AP"
  },
  {
    "SID": 1084 ,
    "lat": 69.4553 ,
    "lon": 30.0411 ,
    "elev": 27 ,
    "name": "PASVIK"
  },
  {
    "SID": 1086 ,
    "lat": 70.6028 ,
    "lon": 29.7 ,
    "elev": 152 ,
    "name": "BATSFJORD AP"
  },
  {
    "SID": 1088 ,
    "lat": 70.0653 ,
    "lon": 29.8353 ,
    "elev": 39 ,
    "name": "VADSO AP"
  },
  {
    "SID": 1089 ,
    "lat": 69.7253 ,
    "lon": 29.8975 ,
    "elev": 86.25 ,
    "name": "KIRKENES"
  },
  {
    "SID": 1092 ,
    "lat": 70.7003 ,
    "lon": 30.0678 ,
    "elev": 9 ,
    "name": "MAKKAUR LH"
  },
  {
    "SID": 1098 ,
    "lat": 70.3706 ,
    "lon": 31.0989 ,
    "elev": 14.6 ,
    "name": "VARDO"
  },
  {
    "SID": 1099 ,
    "lat": 70.3544 ,
    "lon": 31.0439 ,
    "elev": 12 ,
    "name": "VARDO AP"
  },
  {
    "SID": 1102 ,
    "lat": 65.2022 ,
    "lon": 10.9964 ,
    "elev": 15.6 ,
    "name": "SKLINNA LH"
  },
  {
    "SID": 1105 ,
    "lat": 68.3678 ,
    "lon": 15.9428 ,
    "elev": 8 ,
    "name": "ROTVAER"
  },
  {
    "SID": 1106 ,
    "lat": 67.5167 ,
    "lon": 12.1 ,
    "elev": 2 ,
    "name": "ROEST III"
  },
  {
    "SID": 1107 ,
    "lat": 67.5267 ,
    "lon": 12.1036 ,
    "elev": 2.13 ,
    "name": "ROST AP"
  },
  {
    "SID": 1108 ,
    "lat": 65.7019 ,
    "lon": 11.8569 ,
    "elev": 9.1 ,
    "name": "VEGA-VALLSJO"
  },
  {
    "SID": 1112 ,
    "lat": 65.4567 ,
    "lon": 12.2181 ,
    "elev": 9 ,
    "name": "BRONNOYSUND AP"
  },
  {
    "SID": 1113 ,
    "lat": 66.8 ,
    "lon": 13.9833 ,
    "elev": 39 ,
    "name": "GLOMFJORD"
  },
  {
    "SID": 1114 ,
    "lat": 66.9033 ,
    "lon": 13.6458 ,
    "elev": 8.48 ,
    "name": "REIPA"
  },
  {
    "SID": 1115 ,
    "lat": 66.7628 ,
    "lon": 12.4858 ,
    "elev": 16.93 ,
    "name": "MYKEN"
  },
  {
    "SID": 1116 ,
    "lat": 65.9606 ,
    "lon": 12.4714 ,
    "elev": 17 ,
    "name": "SANDNESSJOEN AP"
  },
  {
    "SID": 1117 ,
    "lat": 65.8269 ,
    "lon": 12.4314 ,
    "elev": 21 ,
    "name": "TJOTTA"
  },
  {
    "SID": 1121 ,
    "lat": 66.3706 ,
    "lon": 12.6106 ,
    "elev": 10 ,
    "name": "SOLVAER III"
  },
  {
    "SID": 1122 ,
    "lat": 65.7842 ,
    "lon": 13.2178 ,
    "elev": 72.23 ,
    "name": "MOSJOEN AP"
  },
  {
    "SID": 1124 ,
    "lat": 64.1586 ,
    "lon": 12.4725 ,
    "elev": 195 ,
    "name": "KJOBLI I SNASA"
  },
  {
    "SID": 1132 ,
    "lat": 65.1661 ,
    "lon": 13.3667 ,
    "elev": 319.26 ,
    "name": "MAJAVATN V"
  },
  {
    "SID": 1133 ,
    "lat": 65.6214 ,
    "lon": 13.2892 ,
    "elev": 50 ,
    "name": "LAKSFORS"
  },
  {
    "SID": 1134 ,
    "lat": 65.1833 ,
    "lon": 13.4167 ,
    "elev": 339 ,
    "name": "MAJAVATN III"
  },
  {
    "SID": 1135 ,
    "lat": 66.1317 ,
    "lon": 13.5867 ,
    "elev": 123.84 ,
    "name": "SELJELIA"
  },
  {
    "SID": 1139 ,
    "lat": 67.6528 ,
    "lon": 12.7228 ,
    "elev": 4 ,
    "name": "VAEROY HELIPORT"
  },
  {
    "SID": 1141 ,
    "lat": 68.15 ,
    "lon": 13.6167 ,
    "elev": 26 ,
    "name": "LEKNES"
  },
  {
    "SID": 1143 ,
    "lat": 68.0469 ,
    "lon": 16.0836 ,
    "elev": 19 ,
    "name": "DRAG-AJLUOKTA"
  },
  {
    "SID": 1144 ,
    "lat": 67.4047 ,
    "lon": 13.8956 ,
    "elev": 24 ,
    "name": "HELLIGVAER II"
  },
  {
    "SID": 1146 ,
    "lat": 66.2347 ,
    "lon": 13.8967 ,
    "elev": 5 ,
    "name": "SKAMDAL"
  },
  {
    "SID": 1147 ,
    "lat": 65.8264 ,
    "lon": 14.1844 ,
    "elev": 406 ,
    "name": "VARNTRESK"
  },
  {
    "SID": 1148 ,
    "lat": 66.3961 ,
    "lon": 14.5306 ,
    "elev": 110 ,
    "name": "STORFORSHEI"
  },
  {
    "SID": 1149 ,
    "lat": 66.3333 ,
    "lon": 14.1 ,
    "elev": 42 ,
    "name": "RANA-BASMOEN"
  },
  {
    "SID": 1150 ,
    "lat": 66.4992 ,
    "lon": 14.9539 ,
    "elev": 251 ,
    "name": "HJARTASEN"
  },
  {
    "SID": 1151 ,
    "lat": 66.3644 ,
    "lon": 14.3014 ,
    "elev": 70 ,
    "name": "MO I RANA AP"
  },
  {
    "SID": 1152 ,
    "lat": 67.2669 ,
    "lon": 14.3586 ,
    "elev": 12.8 ,
    "name": "BODO VI"
  },
  {
    "SID": 1153 ,
    "lat": 67.2853 ,
    "lon": 14.4514 ,
    "elev": 33 ,
    "name": "BODO-VAGONES"
  },
  {
    "SID": 1156 ,
    "lat": 68.6067 ,
    "lon": 14.4331 ,
    "elev": 7.55 ,
    "name": "BO I VESTERALEN"
  },
  {
    "SID": 1158 ,
    "lat": 67.1656 ,
    "lon": 15.4856 ,
    "elev": 7.55 ,
    "name": "SETSA"
  },
  {
    "SID": 1160 ,
    "lat": 68.1503 ,
    "lon": 14.6506 ,
    "elev": 11 ,
    "name": "SKROVA LH"
  },
  {
    "SID": 1161 ,
    "lat": 68.2453 ,
    "lon": 14.6694 ,
    "elev": 9 ,
    "name": "SVOLVAER AP"
  },
  {
    "SID": 1162 ,
    "lat": 68.58 ,
    "lon": 15.0294 ,
    "elev": 3 ,
    "name": "STOKMARKNES AP"
  },
  {
    "SID": 1167 ,
    "lat": 68.7003 ,
    "lon": 15.4167 ,
    "elev": 3.3 ,
    "name": "SORTLAND"
  },
  {
    "SID": 1169 ,
    "lat": 66.8481 ,
    "lon": 15.3144 ,
    "elev": 81 ,
    "name": "SALTDAL"
  },
  {
    "SID": 1180 ,
    "lat": 68.8025 ,
    "lon": 16.5372 ,
    "elev": 46.25 ,
    "name": "HARSTAD"
  },
  {
    "SID": 1183 ,
    "lat": 68.4911 ,
    "lon": 16.6833 ,
    "elev": 26 ,
    "name": "EVENES AP"
  },
  {
    "SID": 1192 ,
    "lat": 68.4319 ,
    "lon": 17.6622 ,
    "elev": 200 ,
    "name": "STRAUMSNES"
  },
  {
    "SID": 1193 ,
    "lat": 68.4397 ,
    "lon": 17.3886 ,
    "elev": 31 ,
    "name": "NARVIK AP"
  },
  {
    "SID": 1198 ,
    "lat": 68.7817 ,
    "lon": 19.7017 ,
    "elev": 203.86 ,
    "name": "DIVIDALEN II"
  },
  {
    "SID": 1199 ,
    "lat": 68.7553 ,
    "lon": 23.5386 ,
    "elev": 383.72 ,
    "name": "SIHCCAJAVRI"
  },
  {
    "SID": 1203 ,
    "lat": 62.0339 ,
    "lon": 4.9858 ,
    "elev": 39.8 ,
    "name": "KRAKENES"
  },
  {
    "SID": 1205 ,
    "lat": 62.3292 ,
    "lon": 5.2678 ,
    "elev": 37.17 ,
    "name": "SVINOY LH"
  },
  {
    "SID": 1207 ,
    "lat": 62.1028 ,
    "lon": 5.5817 ,
    "elev": 41 ,
    "name": "FISKABYGD"
  },
  {
    "SID": 1209 ,
    "lat": 62.1811 ,
    "lon": 6.0806 ,
    "elev": 74 ,
    "name": "ORSTA-VOLDA AP"
  },
  {
    "SID": 1210 ,
    "lat": 62.5617 ,
    "lon": 6.115 ,
    "elev": 21.03 ,
    "name": "ALESUND/VIGRA"
  },
  {
    "SID": 1212 ,
    "lat": 62.8594 ,
    "lon": 6.5394 ,
    "elev": 14.5 ,
    "name": "ONA II"
  },
  {
    "SID": 1214 ,
    "lat": 62.6511 ,
    "lon": 6.755 ,
    "elev": 43 ,
    "name": "REKDAL"
  },
  {
    "SID": 1217 ,
    "lat": 62.7444 ,
    "lon": 7.2617 ,
    "elev": 3 ,
    "name": "MOLDE AP"
  },
  {
    "SID": 1218 ,
    "lat": 62.2303 ,
    "lon": 7.4217 ,
    "elev": 17.4 ,
    "name": "TAFJORD"
  },
  {
    "SID": 1220 ,
    "lat": 62.4556 ,
    "lon": 7.7703 ,
    "elev": 1294 ,
    "name": "MANNEN"
  },
  {
    "SID": 1221 ,
    "lat": 63.0556 ,
    "lon": 9.0722 ,
    "elev": 450 ,
    "name": "TAGDALEN"
  },
  {
    "SID": 1223 ,
    "lat": 63.1094 ,
    "lon": 7.8158 ,
    "elev": 62 ,
    "name": "KRISTIANSUND AP"
  },
  {
    "SID": 1224 ,
    "lat": 62.4703 ,
    "lon": 6.2106 ,
    "elev": 15 ,
    "name": "AALESUND"
  },
  {
    "SID": 1225 ,
    "lat": 63.5278 ,
    "lon": 7.9467 ,
    "elev": 5 ,
    "name": "VEIHOLMEN"
  },
  {
    "SID": 1227 ,
    "lat": 62.8333 ,
    "lon": 8.3 ,
    "elev": 69 ,
    "name": "TINGVOLL-HANEM"
  },
  {
    "SID": 1228 ,
    "lat": 63.8467 ,
    "lon": 8.4667 ,
    "elev": 5.85 ,
    "name": "SULA"
  },
  {
    "SID": 1229 ,
    "lat": 62.8347 ,
    "lon": 8.5213 ,
    "elev": 5 ,
    "name": ""
  },
  {
    "SID": 1230 ,
    "lat": 62.2581 ,
    "lon": 8.1997 ,
    "elev": 579 ,
    "name": "BJORLI"
  },
  {
    "SID": 1232 ,
    "lat": 62.445 ,
    "lon": 7.8481 ,
    "elev": 64.6 ,
    "name": "MARSTEIN"
  },
  {
    "SID": 1233 ,
    "lat": 62.0719 ,
    "lon": 9.1161 ,
    "elev": 638 ,
    "name": "DOMBAAS"
  },
  {
    "SID": 1234 ,
    "lat": 63.3153 ,
    "lon": 9.8494 ,
    "elev": 4 ,
    "name": "ORKDAL-THAMSHAMN"
  },
  {
    "SID": 1237 ,
    "lat": 63.5192 ,
    "lon": 9.1125 ,
    "elev": 13 ,
    "name": ""
  },
  {
    "SID": 1238 ,
    "lat": 62.1131 ,
    "lon": 9.2861 ,
    "elev": 974 ,
    "name": "FOKSTUGU"
  },
  {
    "SID": 1239 ,
    "lat": 62.2206 ,
    "lon": 9.5422 ,
    "elev": 1012 ,
    "name": "HJERKINN II"
  },
  {
    "SID": 1240 ,
    "lat": 64.1728 ,
    "lon": 9.4061 ,
    "elev": 15.92 ,
    "name": "HALTEN LH"
  },
  {
    "SID": 1241 ,
    "lat": 63.7003 ,
    "lon": 9.6011 ,
    "elev": 8.53 ,
    "name": "ORLAND III"
  },
  {
    "SID": 1242 ,
    "lat": 63.9658 ,
    "lon": 10.2156 ,
    "elev": 20 ,
    "name": "AFJORD II"
  },
  {
    "SID": 1245 ,
    "lat": 62.6042 ,
    "lon": 9.6667 ,
    "elev": 598.8 ,
    "name": "OPPDAL-SETER"
  },
  {
    "SID": 1250 ,
    "lat": 62.1281 ,
    "lon": 9.9947 ,
    "elev": 694 ,
    "name": "FOLLDAL-FREDHEIM"
  },
  {
    "SID": 1252 ,
    "lat": 62.82 ,
    "lon": 10.02 ,
    "elev": 475 ,
    "name": "BERKAK"
  },
  {
    "SID": 1253 ,
    "lat": 62.9533 ,
    "lon": 10.1786 ,
    "elev": 299 ,
    "name": "SOKNEDAL"
  },
  {
    "SID": 1254 ,
    "lat": 62.9761 ,
    "lon": 10.5606 ,
    "elev": 127 ,
    "name": "KOTSOY"
  },
  {
    "SID": 1257 ,
    "lat": 63.4106 ,
    "lon": 10.4539 ,
    "elev": 131.5 ,
    "name": "TRONDHEIM/VOLL"
  },
  {
    "SID": 1259 ,
    "lat": 64.4014 ,
    "lon": 10.455 ,
    "elev": 18.42 ,
    "name": "BUHOLMRASA LH"
  },
  {
    "SID": 1262 ,
    "lat": 64.7975 ,
    "lon": 10.5492 ,
    "elev": 33 ,
    "name": "NORDOYAN LH"
  },
  {
    "SID": 1265 ,
    "lat": 62.2694 ,
    "lon": 10.7319 ,
    "elev": 482.3 ,
    "name": "TYNSET-HANSMOEN"
  },
  {
    "SID": 1270 ,
    "lat": 63.4881 ,
    "lon": 10.8794 ,
    "elev": 40 ,
    "name": "KVITHAMAR"
  },
  {
    "SID": 1271 ,
    "lat": 63.4592 ,
    "lon": 10.935 ,
    "elev": 17.06 ,
    "name": "TRONDHEIM/VERNES"
  },
  {
    "SID": 1272 ,
    "lat": 63.5656 ,
    "lon": 10.6939 ,
    "elev": 70 ,
    "name": "FROSTA"
  },
  {
    "SID": 1273 ,
    "lat": 63.2247 ,
    "lon": 11.0075 ,
    "elev": 161.56 ,
    "name": "SELBU"
  },
  {
    "SID": 1274 ,
    "lat": 63.2 ,
    "lon": 11.12 ,
    "elev": 242 ,
    "name": "---"
  },
  {
    "SID": 1277 ,
    "lat": 64.0222 ,
    "lon": 11.4506 ,
    "elev": 6 ,
    "name": "STEINKJER"
  },
  {
    "SID": 1278 ,
    "lat": 63.7822 ,
    "lon": 11.6742 ,
    "elev": 83.3 ,
    "name": "VERDAL-REPPE"
  },
  {
    "SID": 1280 ,
    "lat": 64.1333 ,
    "lon": 11.3333 ,
    "elev": 118 ,
    "name": "NAMDALSEID-VENGSTAD"
  },
  {
    "SID": 1281 ,
    "lat": 64.7419 ,
    "lon": 12.8458 ,
    "elev": 140 ,
    "name": "NAMSSKOGAN"
  },
  {
    "SID": 1282 ,
    "lat": 64.835 ,
    "lon": 11.1408 ,
    "elev": 4 ,
    "name": "RORVIK AP"
  },
  {
    "SID": 1287 ,
    "lat": 62.6797 ,
    "lon": 11.8167 ,
    "elev": 760 ,
    "name": "SOLENDET"
  },
  {
    "SID": 1288 ,
    "lat": 62.5772 ,
    "lon": 11.3517 ,
    "elev": 626.05 ,
    "name": "ROROS AP"
  },
  {
    "SID": 1290 ,
    "lat": 64.4708 ,
    "lon": 11.5706 ,
    "elev": 2 ,
    "name": "NAMSOS AP"
  },
  {
    "SID": 1291 ,
    "lat": 64.5308 ,
    "lon": 12.3836 ,
    "elev": 95 ,
    "name": "GARTLAND"
  },
  {
    "SID": 1292 ,
    "lat": 63.42 ,
    "lon": 11.75 ,
    "elev": 240 ,
    "name": "---"
  },
  {
    "SID": 1293 ,
    "lat": 63.4114 ,
    "lon": 11.7275 ,
    "elev": 169.97 ,
    "name": "MERAKER-EGGE"
  },
  {
    "SID": 1295 ,
    "lat": 64.55 ,
    "lon": 12.15 ,
    "elev": 27 ,
    "name": "HOYLANDET"
  },
  {
    "SID": 1298 ,
    "lat": 64.4456 ,
    "lon": 13.7178 ,
    "elev": 433 ,
    "name": "NORDLI-HOLAND"
  },
  {
    "SID": 1300 ,
    "lat": 61.2042 ,
    "lon": 2.2686 ,
    "elev": 80 ,
    "name": "GULLFAKS C"
  },
  {
    "SID": 1304 ,
    "lat": 61.5717 ,
    "lon": 4.6817 ,
    "elev": 25.3 ,
    "name": "YTTEROYANE LH"
  },
  {
    "SID": 1307 ,
    "lat": 60.78 ,
    "lon": 4.7197 ,
    "elev": 18.96 ,
    "name": "FEDJE"
  },
  {
    "SID": 1308 ,
    "lat": 61.2928 ,
    "lon": 5.0444 ,
    "elev": 7 ,
    "name": "FURUNESET"
  },
  {
    "SID": 1310 ,
    "lat": 61.5831 ,
    "lon": 5.0278 ,
    "elev": 9 ,
    "name": "FLORO AP"
  },
  {
    "SID": 1311 ,
    "lat": 60.2892 ,
    "lon": 5.2264 ,
    "elev": 50.29 ,
    "name": "BERGEN/FLESLAND"
  },
  {
    "SID": 1314 ,
    "lat": 60.5206 ,
    "lon": 5.7247 ,
    "elev": 10 ,
    "name": ""
  },
  {
    "SID": 1315 ,
    "lat": 60.6469 ,
    "lon": 6.1106 ,
    "elev": 17 ,
    "name": "EVANGER"
  },
  {
    "SID": 1317 ,
    "lat": 60.3831 ,
    "lon": 5.3336 ,
    "elev": 12 ,
    "name": "BERGEN/FLORIDA"
  },
  {
    "SID": 1318 ,
    "lat": 61.7878 ,
    "lon": 6.1856 ,
    "elev": 51 ,
    "name": "SANDANE"
  },
  {
    "SID": 1319 ,
    "lat": 61.0269 ,
    "lon": 5.3806 ,
    "elev": 38 ,
    "name": "TAKLE"
  },
  {
    "SID": 1320 ,
    "lat": 61.8294 ,
    "lon": 6.1044 ,
    "elev": 60 ,
    "name": "SANDANE AP"
  },
  {
    "SID": 1321 ,
    "lat": 61.9156 ,
    "lon": 6.5583 ,
    "elev": 208.62 ,
    "name": "STRYN"
  },
  {
    "SID": 1322 ,
    "lat": 61.4647 ,
    "lon": 5.9331 ,
    "elev": 64 ,
    "name": "FORDE-TEFRE"
  },
  {
    "SID": 1323 ,
    "lat": 61.3911 ,
    "lon": 5.76 ,
    "elev": 321 ,
    "name": "FORDE AP"
  },
  {
    "SID": 1326 ,
    "lat": 60.8561 ,
    "lon": 5.9731 ,
    "elev": 125 ,
    "name": "MODALEN III"
  },
  {
    "SID": 1327 ,
    "lat": 60.3886 ,
    "lon": 5.9639 ,
    "elev": 455 ,
    "name": "KVAMSKOGEN-JONSHOGDI"
  },
  {
    "SID": 1329 ,
    "lat": 60.3578 ,
    "lon": 6.2747 ,
    "elev": 49.62 ,
    "name": "KVAMSOY"
  },
  {
    "SID": 1332 ,
    "lat": 61.4231 ,
    "lon": 6.7642 ,
    "elev": 3 ,
    "name": "FJAERLAND-BREMUSEET"
  },
  {
    "SID": 1337 ,
    "lat": 60.625 ,
    "lon": 6.4261 ,
    "elev": 55.26 ,
    "name": "VOSSEVANGEN"
  },
  {
    "SID": 1338 ,
    "lat": 61.1711 ,
    "lon": 6.6469 ,
    "elev": 54 ,
    "name": "VANGSNES"
  },
  {
    "SID": 1340 ,
    "lat": 60.4083 ,
    "lon": 7.2797 ,
    "elev": 735.9 ,
    "name": "FET I EIDFJORD"
  },
  {
    "SID": 1341 ,
    "lat": 60.47 ,
    "lon": 6.87 ,
    "elev": 166 ,
    "name": "---"
  },
  {
    "SID": 1342 ,
    "lat": 60.3186 ,
    "lon": 6.6539 ,
    "elev": 12 ,
    "name": "ULLENSVANG"
  },
  {
    "SID": 1344 ,
    "lat": 60.7019 ,
    "lon": 6.9372 ,
    "elev": 695 ,
    "name": "MJOLFJELL"
  },
  {
    "SID": 1345 ,
    "lat": 60.7192 ,
    "lon": 7.2086 ,
    "elev": 960 ,
    "name": ""
  },
  {
    "SID": 1346 ,
    "lat": 60.6569 ,
    "lon": 7.2769 ,
    "elev": 1162 ,
    "name": "MIDTSTOVA"
  },
  {
    "SID": 1347 ,
    "lat": 61.1581 ,
    "lon": 7.1414 ,
    "elev": 497 ,
    "name": "SOGNDAL AP"
  },
  {
    "SID": 1350 ,
    "lat": 60.5925 ,
    "lon": 7.5303 ,
    "elev": 1209.75 ,
    "name": "FINSEVATN"
  },
  {
    "SID": 1352 ,
    "lat": 60.1839 ,
    "lon": 7.4814 ,
    "elev": 1250 ,
    "name": "SANDHAUG"
  },
  {
    "SID": 1355 ,
    "lat": 61.1031 ,
    "lon": 7.5025 ,
    "elev": 4.13 ,
    "name": "LAERDAL IV"
  },
  {
    "SID": 1357 ,
    "lat": 60.8706 ,
    "lon": 8.5175 ,
    "elev": 804.2 ,
    "name": ""
  },
  {
    "SID": 1358 ,
    "lat": 60.8547 ,
    "lon": 8.5931 ,
    "elev": 604 ,
    "name": "HEMSEDAL II"
  },
  {
    "SID": 1359 ,
    "lat": 60.53 ,
    "lon": 8.1947 ,
    "elev": 773.51 ,
    "name": "GEILO-OLDEBRATEN"
  },
  {
    "SID": 1360 ,
    "lat": 61.8964 ,
    "lon": 7.8956 ,
    "elev": 664 ,
    "name": "BRATA-SLETTOM"
  },
  {
    "SID": 1361 ,
    "lat": 62.0161 ,
    "lon": 7.6636 ,
    "elev": 871.9 ,
    "name": "GROTLI III"
  },
  {
    "SID": 1362 ,
    "lat": 61.6778 ,
    "lon": 8.3728 ,
    "elev": 1894 ,
    "name": "JUVVASSHOE"
  },
  {
    "SID": 1363 ,
    "lat": 60.4158 ,
    "lon": 8.501 ,
    "elev": 798 ,
    "name": ""
  },
  {
    "SID": 1364 ,
    "lat": 61.1778 ,
    "lon": 8.1125 ,
    "elev": 955.1 ,
    "name": "FILEFJELL"
  },
  {
    "SID": 1365 ,
    "lat": 61.2506 ,
    "lon": 8.9228 ,
    "elev": 965 ,
    "name": "BEITOSTOLEN II"
  },
  {
    "SID": 1366 ,
    "lat": 61.5644 ,
    "lon": 7.9978 ,
    "elev": 1413 ,
    "name": "SOGNEFJELL"
  },
  {
    "SID": 1367 ,
    "lat": 60.9867 ,
    "lon": 9.2367 ,
    "elev": 365.4 ,
    "name": "FAGERNES"
  },
  {
    "SID": 1368 ,
    "lat": 61.0128 ,
    "lon": 9.2928 ,
    "elev": 822 ,
    "name": "FAGERNES AP"
  },
  {
    "SID": 1369 ,
    "lat": 60.9181 ,
    "lon": 9.29 ,
    "elev": 639 ,
    "name": "ABJORSBRATEN"
  },
  {
    "SID": 1370 ,
    "lat": 61.5308 ,
    "lon": 9.4022 ,
    "elev": 928 ,
    "name": "SKABU"
  },
  {
    "SID": 1371 ,
    "lat": 61.1219 ,
    "lon": 9.0631 ,
    "elev": 521 ,
    "name": "LOKEN I VOLBU"
  },
  {
    "SID": 1372 ,
    "lat": 60.57 ,
    "lon": 9.13 ,
    "elev": 167 ,
    "name": "---"
  },
  {
    "SID": 1373 ,
    "lat": 60.5669 ,
    "lon": 9.1336 ,
    "elev": 167.34 ,
    "name": "NESBYEN-TODOKK"
  },
  {
    "SID": 1374 ,
    "lat": 60.9367 ,
    "lon": 10.0381 ,
    "elev": 542 ,
    "name": "VEST-TORPA II"
  },
  {
    "SID": 1375 ,
    "lat": 61.4647 ,
    "lon": 10.1275 ,
    "elev": 1030 ,
    "name": "KVITFJELL"
  },
  {
    "SID": 1376 ,
    "lat": 60.3828 ,
    "lon": 9.605 ,
    "elev": 142 ,
    "name": "GULSVIK II"
  },
  {
    "SID": 1378 ,
    "lat": 61.0925 ,
    "lon": 10.4772 ,
    "elev": 242.4 ,
    "name": "LILLEHAMMER-SAETHERENGEN"
  },
  {
    "SID": 1380 ,
    "lat": 61.6511 ,
    "lon": 10.1086 ,
    "elev": 930 ,
    "name": "VENABU"
  },
  {
    "SID": 1381 ,
    "lat": 60.7003 ,
    "lon": 10.8683 ,
    "elev": 264 ,
    "name": "APELSVOLL"
  },
  {
    "SID": 1382 ,
    "lat": 60.7733 ,
    "lon": 10.8056 ,
    "elev": 128 ,
    "name": "KISE"
  },
  {
    "SID": 1383 ,
    "lat": 61.4253 ,
    "lon": 11.0803 ,
    "elev": 257 ,
    "name": "EVENSTAD-DIH"
  },
  {
    "SID": 1384 ,
    "lat": 60.2064 ,
    "lon": 11.08 ,
    "elev": 207.56 ,
    "name": "OSLO/GARDERMOEN"
  },
  {
    "SID": 1385 ,
    "lat": 60.8178 ,
    "lon": 11.0694 ,
    "elev": 222.27 ,
    "name": "HAMAR"
  },
  {
    "SID": 1386 ,
    "lat": 60.8008 ,
    "lon": 11.0975 ,
    "elev": 132 ,
    "name": "HAMAR II"
  },
  {
    "SID": 1387 ,
    "lat": 61.455 ,
    "lon": 10.1856 ,
    "elev": 200 ,
    "name": "FAVANG"
  },
  {
    "SID": 1389 ,
    "lat": 61.1592 ,
    "lon": 11.4425 ,
    "elev": 238.22 ,
    "name": "RENA-HAUGEDALEN"
  },
  {
    "SID": 1392 ,
    "lat": 60.6139 ,
    "lon": 12.0122 ,
    "elev": 184.6 ,
    "name": "FLISA II"
  },
  {
    "SID": 1393 ,
    "lat": 61.8897 ,
    "lon": 12.0333 ,
    "elev": 673.5 ,
    "name": "DREVSJO"
  },
  {
    "SID": 1397 ,
    "lat": 61.2942 ,
    "lon": 12.2717 ,
    "elev": 361.36 ,
    "name": "TRYSIL VEGSTASJON"
  },
  {
    "SID": 1400 ,
    "lat": 56.5 ,
    "lon": 3.2 ,
    "elev": 48.8 ,
    "name": "EKOFISK"
  },
  {
    "SID": 1401 ,
    "lat": 59.9833 ,
    "lon": 2.25 ,
    "elev": 48 ,
    "name": "FRIGG"
  },
  {
    "SID": 1403 ,
    "lat": 59.3064 ,
    "lon": 4.8722 ,
    "elev": 56.3 ,
    "name": "UTSIRA LH"
  },
  {
    "SID": 1406 ,
    "lat": 59.9081 ,
    "lon": 5.0681 ,
    "elev": 16.3 ,
    "name": "SLATTEROY LH"
  },
  {
    "SID": 1407 ,
    "lat": 59.7933 ,
    "lon": 5.3407 ,
    "elev": 49 ,
    "name": ""
  },
  {
    "SID": 1408 ,
    "lat": 59.3497 ,
    "lon": 5.1978 ,
    "elev": 24 ,
    "name": "HAUGESUND AP"
  },
  {
    "SID": 1411 ,
    "lat": 59.0703 ,
    "lon": 5.4119 ,
    "elev": 22.42 ,
    "name": "KVITSOY - NORDBO"
  },
  {
    "SID": 1412 ,
    "lat": 58.6592 ,
    "lon": 5.5553 ,
    "elev": 25.6 ,
    "name": "OBRESTAD"
  },
  {
    "SID": 1413 ,
    "lat": 58.7606 ,
    "lon": 5.6506 ,
    "elev": 87 ,
    "name": "SAERHEIM"
  },
  {
    "SID": 1414 ,
    "lat": 59.4381 ,
    "lon": 5.0781 ,
    "elev": 25 ,
    "name": "ROVER"
  },
  {
    "SID": 1415 ,
    "lat": 58.8842 ,
    "lon": 5.6369 ,
    "elev": 8.83 ,
    "name": "STAVANGER/SOLA"
  },
  {
    "SID": 1416 ,
    "lat": 58.9569 ,
    "lon": 5.73 ,
    "elev": 72 ,
    "name": "STAVANGER VAALAND"
  },
  {
    "SID": 1417 ,
    "lat": 59.4839 ,
    "lon": 5.7506 ,
    "elev": 64.7 ,
    "name": "NEDRE VATS"
  },
  {
    "SID": 1418 ,
    "lat": 60.0167 ,
    "lon": 5.2058 ,
    "elev": 32 ,
    "name": ""
  },
  {
    "SID": 1419 ,
    "lat": 59.0508 ,
    "lon": 6.1211 ,
    "elev": 300 ,
    "name": "LIARVATN"
  },
  {
    "SID": 1422 ,
    "lat": 59.1597 ,
    "lon": 6.0364 ,
    "elev": 30 ,
    "name": "FISTER_SIGMUNDSTAD"
  },
  {
    "SID": 1424 ,
    "lat": 59.6486 ,
    "lon": 6.3631 ,
    "elev": 2.71 ,
    "name": "SAUDA"
  },
  {
    "SID": 1425 ,
    "lat": 58.5006 ,
    "lon": 6.5006 ,
    "elev": 66.07 ,
    "name": "EIK HOVE"
  },
  {
    "SID": 1426 ,
    "lat": 58.4353 ,
    "lon": 5.8717 ,
    "elev": 49 ,
    "name": "EIGEROYA"
  },
  {
    "SID": 1427 ,
    "lat": 58.1097 ,
    "lon": 6.5681 ,
    "elev": 13.5 ,
    "name": "LISTA LH"
  },
  {
    "SID": 1428 ,
    "lat": 58.1 ,
    "lon": 6.6333 ,
    "elev": 10 ,
    "name": "LISTA FLYPLASS"
  },
  {
    "SID": 1430 ,
    "lat": 58.0244 ,
    "lon": 7.4517 ,
    "elev": 10 ,
    "name": "MANDAL III"
  },
  {
    "SID": 1431 ,
    "lat": 58.9228 ,
    "lon": 6.9094 ,
    "elev": 555.4 ,
    "name": "SIRDAL-SINNES"
  },
  {
    "SID": 1433 ,
    "lat": 59.8336 ,
    "lon": 6.9914 ,
    "elev": 1081.01 ,
    "name": "MIDTLAEGER"
  },
  {
    "SID": 1434 ,
    "lat": 59.7661 ,
    "lon": 7.3653 ,
    "elev": 822 ,
    "name": "VAAGSLI"
  },
  {
    "SID": 1435 ,
    "lat": 59.8118 ,
    "lon": 7.2143 ,
    "elev": 991 ,
    "name": ""
  },
  {
    "SID": 1436 ,
    "lat": 57.9828 ,
    "lon": 7.0478 ,
    "elev": 13 ,
    "name": "LINDESNES LH"
  },
  {
    "SID": 1439 ,
    "lat": 58.2669 ,
    "lon": 7.3806 ,
    "elev": 263 ,
    "name": "KONSMO-HOYLAND"
  },
  {
    "SID": 1440 ,
    "lat": 59.3428 ,
    "lon": 6.8733 ,
    "elev": 1050 ,
    "name": "BLASJO"
  },
  {
    "SID": 1441 ,
    "lat": 59.595 ,
    "lon": 7.41 ,
    "elev": 836.16 ,
    "name": "HOVDEN-LUNDANE"
  },
  {
    "SID": 1442 ,
    "lat": 58.6669 ,
    "lon": 7.8008 ,
    "elev": 211.3 ,
    "name": "BYGLANDSFJORD"
  },
  {
    "SID": 1444 ,
    "lat": 59.2017 ,
    "lon": 7.5328 ,
    "elev": 302 ,
    "name": "VALLE"
  },
  {
    "SID": 1446 ,
    "lat": 59.5667 ,
    "lon": 8.2 ,
    "elev": 714 ,
    "name": "OYFJELL-TROVATN"
  },
  {
    "SID": 1447 ,
    "lat": 59.4969 ,
    "lon": 8.1992 ,
    "elev": 561.85 ,
    "name": "HOYDALSMO II"
  },
  {
    "SID": 1448 ,
    "lat": 58.0731 ,
    "lon": 8.0531 ,
    "elev": 8 ,
    "name": "OKSOY LH"
  },
  {
    "SID": 1449 ,
    "lat": 58.87 ,
    "lon": 9.0264 ,
    "elev": 32 ,
    "name": "GJERSTAD"
  },
  {
    "SID": 1450 ,
    "lat": 59.8394 ,
    "lon": 8.1792 ,
    "elev": 977 ,
    "name": "MOSSTRAND II"
  },
  {
    "SID": 1452 ,
    "lat": 58.2 ,
    "lon": 8.0767 ,
    "elev": 17.37 ,
    "name": "KRISTIANSAND/KJEVIK"
  },
  {
    "SID": 1453 ,
    "lat": 58.6006 ,
    "lon": 8.4161 ,
    "elev": 162 ,
    "name": "HYNNEKLEIV"
  },
  {
    "SID": 1455 ,
    "lat": 59.0269 ,
    "lon": 8.5206 ,
    "elev": 254.88 ,
    "name": "TVEITSUND"
  },
  {
    "SID": 1459 ,
    "lat": 58.6581 ,
    "lon": 8.6311 ,
    "elev": 142 ,
    "name": "NELAUG"
  },
  {
    "SID": 1460 ,
    "lat": 59.4353 ,
    "lon": 10.5781 ,
    "elev": 14 ,
    "name": ""
  },
  {
    "SID": 1462 ,
    "lat": 59.0872 ,
    "lon": 9.66 ,
    "elev": 90 ,
    "name": ""
  },
  {
    "SID": 1463 ,
    "lat": 59.6606 ,
    "lon": 10.7819 ,
    "elev": 89 ,
    "name": "AS"
  },
  {
    "SID": 1464 ,
    "lat": 58.34 ,
    "lon": 8.5225 ,
    "elev": 6 ,
    "name": "LANDVIK"
  },
  {
    "SID": 1465 ,
    "lat": 58.3986 ,
    "lon": 8.7892 ,
    "elev": 15 ,
    "name": "TORUNGEN LH"
  },
  {
    "SID": 1466 ,
    "lat": 59.9708 ,
    "lon": 11.0383 ,
    "elev": 109 ,
    "name": "KJELLER AP"
  },
  {
    "SID": 1467 ,
    "lat": 58.6333 ,
    "lon": 9.1503 ,
    "elev": 4.54 ,
    "name": "LYNGOR LH"
  },
  {
    "SID": 1468 ,
    "lat": 60.1903 ,
    "lon": 12.0067 ,
    "elev": 148 ,
    "name": "KONGSVINGER"
  },
  {
    "SID": 1469 ,
    "lat": 60.1664 ,
    "lon": 10.2478 ,
    "elev": 141.7 ,
    "name": "HONEFOSS-HOYBY"
  },
  {
    "SID": 1470 ,
    "lat": 59.3831 ,
    "lon": 9.2011 ,
    "elev": 93 ,
    "name": "GVARV"
  },
  {
    "SID": 1471 ,
    "lat": 60.0433 ,
    "lon": 9.1467 ,
    "elev": 275 ,
    "name": "VEGGLI II"
  },
  {
    "SID": 1473 ,
    "lat": 59.6244 ,
    "lon": 9.6375 ,
    "elev": 172.7 ,
    "name": "KONGSBERG BRANNSTASJON"
  },
  {
    "SID": 1474 ,
    "lat": 59.9 ,
    "lon": 9.5333 ,
    "elev": 294 ,
    "name": "LYNGDAL I NUMEDAL"
  },
  {
    "SID": 1476 ,
    "lat": 58.8569 ,
    "lon": 9.5761 ,
    "elev": 5 ,
    "name": "JOMFRULAND LH"
  },
  {
    "SID": 1477 ,
    "lat": 59.7128 ,
    "lon": 10.1458 ,
    "elev": 193 ,
    "name": "KONNERUD"
  },
  {
    "SID": 1478 ,
    "lat": 58.9686 ,
    "lon": 10.1478 ,
    "elev": 15 ,
    "name": "SVENNER LH"
  },
  {
    "SID": 1479 ,
    "lat": 59.5667 ,
    "lon": 9.2105 ,
    "elev": 20 ,
    "name": ""
  },
  {
    "SID": 1480 ,
    "lat": 59.7536 ,
    "lon": 10.1236 ,
    "elev": 8 ,
    "name": "DRAMMEN BERSKOG"
  },
  {
    "SID": 1481 ,
    "lat": 59.2297 ,
    "lon": 10.3481 ,
    "elev": 26 ,
    "name": "MELSOM"
  },
  {
    "SID": 1482 ,
    "lat": 59.0269 ,
    "lon": 10.5242 ,
    "elev": 7.7 ,
    "name": "FERDER LH"
  },
  {
    "SID": 1483 ,
    "lat": 59.1844 ,
    "lon": 10.2553 ,
    "elev": 87.17 ,
    "name": "TORP"
  },
  {
    "SID": 1484 ,
    "lat": 59.9119 ,
    "lon": 11.58 ,
    "elev": 127.76 ,
    "name": "AURSKOG"
  },
  {
    "SID": 1485 ,
    "lat": 59.6194 ,
    "lon": 10.215 ,
    "elev": 60 ,
    "name": "SANDE-GALLEBERG"
  },
  {
    "SID": 1486 ,
    "lat": 59.8558 ,
    "lon": 10.4344 ,
    "elev": 163 ,
    "name": "ASKER"
  },
  {
    "SID": 1487 ,
    "lat": 59.9228 ,
    "lon": 10.8342 ,
    "elev": 90 ,
    "name": "ALNA"
  },
  {
    "SID": 1488 ,
    "lat": 60.1172 ,
    "lon": 10.8289 ,
    "elev": 170 ,
    "name": "HAKADAL"
  },
  {
    "SID": 1489 ,
    "lat": 60.0514 ,
    "lon": 10.6878 ,
    "elev": 360 ,
    "name": "BJORNHOLT"
  },
  {
    "SID": 1490 ,
    "lat": 59.9844 ,
    "lon": 10.6692 ,
    "elev": 514 ,
    "name": "TRYVANNSHOGDA"
  },
  {
    "SID": 1492 ,
    "lat": 59.9422 ,
    "lon": 10.72 ,
    "elev": 96.6 ,
    "name": "OSLO-BLINDERN"
  },
  {
    "SID": 1493 ,
    "lat": 59.2856 ,
    "lon": 11.1147 ,
    "elev": 57 ,
    "name": "SARPSBORG"
  },
  {
    "SID": 1494 ,
    "lat": 59.3828 ,
    "lon": 10.7881 ,
    "elev": 53.03 ,
    "name": "RYGGE"
  },
  {
    "SID": 1495 ,
    "lat": 59.1511 ,
    "lon": 10.8286 ,
    "elev": 10 ,
    "name": "STROMTANGEN LH"
  },
  {
    "SID": 1496 ,
    "lat": 59.8167 ,
    "lon": 11.4833 ,
    "elev": 154 ,
    "name": "HOLAND-FOSSER"
  },
  {
    "SID": 1498 ,
    "lat": 59.97 ,
    "lon": 12.22 ,
    "elev": 153 ,
    "name": "MAGNOR"
  },
  {
    "SID": 2013 ,
    "lat": 67.7269 ,
    "lon": 17.4711 ,
    "elev": 542.7 ,
    "name": "RITSEM"
  },
  {
    "SID": 2019 ,
    "lat": 68.4203 ,
    "lon": 18.1681 ,
    "elev": 516.2 ,
    "name": "KATTERJAKK A"
  },
  {
    "SID": 2020 ,
    "lat": 68.4211 ,
    "lon": 18.1714 ,
    "elev": 517.3 ,
    "name": "KATTERJAKK"
  },
  {
    "SID": 2024 ,
    "lat": 67.4964 ,
    "lon": 18.2944 ,
    "elev": 425.45 ,
    "name": "STORA SJOFALLET"
  },
  {
    "SID": 2028 ,
    "lat": 67.9114 ,
    "lon": 18.6072 ,
    "elev": 1144 ,
    "name": "TARFALA, SOL"
  },
  {
    "SID": 2029 ,
    "lat": 67.9114 ,
    "lon": 18.6072 ,
    "elev": 1146.1 ,
    "name": "TARFALA"
  },
  {
    "SID": 2031 ,
    "lat": 68.0747 ,
    "lon": 19.8394 ,
    "elev": 493.51 ,
    "name": "RENSJON"
  },
  {
    "SID": 2036 ,
    "lat": 67.8542 ,
    "lon": 19.0256 ,
    "elev": 467.96 ,
    "name": "NIKKALUOKTA"
  },
  {
    "SID": 2038 ,
    "lat": 67.2564 ,
    "lon": 20.2747 ,
    "elev": 453.19 ,
    "name": "LATNIVAARA"
  },
  {
    "SID": 2044 ,
    "lat": 67.8228 ,
    "lon": 20.34 ,
    "elev": 446.7 ,
    "name": "KIRUNA"
  },
  {
    "SID": 2045 ,
    "lat": 67.8406 ,
    "lon": 20.4106 ,
    "elev": 424 ,
    "name": "KIRUNA, SOL"
  },
  {
    "SID": 2049 ,
    "lat": 67.1422 ,
    "lon": 20.6458 ,
    "elev": 359.83 ,
    "name": "GALLIVARE"
  },
  {
    "SID": 2054 ,
    "lat": 68.0439 ,
    "lon": 21.755 ,
    "elev": 360 ,
    "name": "NEDRE SOPPERO"
  },
  {
    "SID": 2055 ,
    "lat": 68.6778 ,
    "lon": 21.5275 ,
    "elev": 402.29 ,
    "name": "NAIMAKKA"
  },
  {
    "SID": 2064 ,
    "lat": 67.3378 ,
    "lon": 22.2336 ,
    "elev": 240.44 ,
    "name": "SAITTAROVA"
  },
  {
    "SID": 2071 ,
    "lat": 58.5822 ,
    "lon": 16.1486 ,
    "elev": 58 ,
    "name": "NORRKOPING, SOL"
  },
  {
    "SID": 2072 ,
    "lat": 67.7317 ,
    "lon": 22.8269 ,
    "elev": 313.24 ,
    "name": "PARKALOMPOLO"
  },
  {
    "SID": 2080 ,
    "lat": 68.4422 ,
    "lon": 22.4503 ,
    "elev": 331 ,
    "name": "KARESUANDO"
  },
  {
    "SID": 2081 ,
    "lat": 68.4419 ,
    "lon": 22.4436 ,
    "elev": 331.9 ,
    "name": "KARESUANDO A"
  },
  {
    "SID": 2091 ,
    "lat": 57.6728 ,
    "lon": 18.3447 ,
    "elev": 49 ,
    "name": "VISBY, SOL"
  },
  {
    "SID": 2095 ,
    "lat": 67.2036 ,
    "lon": 23.39 ,
    "elev": 165.9 ,
    "name": "PAJALA"
  },
  {
    "SID": 2096 ,
    "lat": 67.2167 ,
    "lon": 23.4 ,
    "elev": 168 ,
    "name": "PAJALA"
  },
  {
    "SID": 2101 ,
    "lat": 65.8061 ,
    "lon": 15.0828 ,
    "elev": 463 ,
    "name": "HEMAVAN"
  },
  {
    "SID": 2102 ,
    "lat": 65.0944 ,
    "lon": 14.5086 ,
    "elev": 1036.29 ,
    "name": "STEKENJOKK"
  },
  {
    "SID": 2103 ,
    "lat": 65.78 ,
    "lon": 15.0644 ,
    "elev": 793.03 ,
    "name": "HEMAVAN-GIEREVARTO"
  },
  {
    "SID": 2104 ,
    "lat": 65.8 ,
    "lon": 15.1 ,
    "elev": 473 ,
    "name": "HEMAVAN"
  },
  {
    "SID": 2110 ,
    "lat": 65.3281 ,
    "lon": 15.0689 ,
    "elev": 577.3 ,
    "name": "GIELAS"
  },
  {
    "SID": 2119 ,
    "lat": 66.8872 ,
    "lon": 18.0197 ,
    "elev": 316.6 ,
    "name": "KVIKKJOKK ARRENJARKA A"
  },
  {
    "SID": 2120 ,
    "lat": 66.8878 ,
    "lon": 18.0178 ,
    "elev": 315 ,
    "name": "KVIKKJOKK-ARRENJARKA"
  },
  {
    "SID": 2121 ,
    "lat": 66.6817 ,
    "lon": 16.1089 ,
    "elev": 615.4 ,
    "name": "MIERKENIS"
  },
  {
    "SID": 2123 ,
    "lat": 66.3242 ,
    "lon": 17.0944 ,
    "elev": 552 ,
    "name": "JAKKVIK"
  },
  {
    "SID": 2124 ,
    "lat": 66.0514 ,
    "lon": 17.8397 ,
    "elev": 432.21 ,
    "name": "ARJEPLOG"
  },
  {
    "SID": 2126 ,
    "lat": 65.0094 ,
    "lon": 17.6994 ,
    "elev": 277.4 ,
    "name": "GUNNARN A"
  },
  {
    "SID": 2128 ,
    "lat": 65.0106 ,
    "lon": 17.6803 ,
    "elev": 283 ,
    "name": "GUNNARN"
  },
  {
    "SID": 2130 ,
    "lat": 66.4861 ,
    "lon": 16.4172 ,
    "elev": 481 ,
    "name": "ROPARUDDEN"
  },
  {
    "SID": 2135 ,
    "lat": 65.5594 ,
    "lon": 17.8603 ,
    "elev": 393.06 ,
    "name": "BURESJON"
  },
  {
    "SID": 2141 ,
    "lat": 66.3 ,
    "lon": 19.2 ,
    "elev": 582.6 ,
    "name": "TJAKAAPE"
  },
  {
    "SID": 2146 ,
    "lat": 66.505 ,
    "lon": 19.675 ,
    "elev": 324 ,
    "name": "VAJMAT"
  },
  {
    "SID": 2147 ,
    "lat": 65.1522 ,
    "lon": 18.5975 ,
    "elev": 362.98 ,
    "name": "MALA-BRANNAN"
  },
  {
    "SID": 2149 ,
    "lat": 65.5953 ,
    "lon": 19.2683 ,
    "elev": 383.59 ,
    "name": "ARVIDSJAUR"
  },
  {
    "SID": 2151 ,
    "lat": 66.4833 ,
    "lon": 20.1667 ,
    "elev": 275 ,
    "name": "JOKKMOKK FPL"
  },
  {
    "SID": 2154 ,
    "lat": 65.8678 ,
    "lon": 20.1542 ,
    "elev": 182 ,
    "name": "VIDSEL"
  },
  {
    "SID": 2159 ,
    "lat": 65.12 ,
    "lon": 20.77 ,
    "elev": 195 ,
    "name": "FALLFORS"
  },
  {
    "SID": 2161 ,
    "lat": 66.7531 ,
    "lon": 20.9283 ,
    "elev": 327.45 ,
    "name": "NATTAVAARA"
  },
  {
    "SID": 2170 ,
    "lat": 65.7528 ,
    "lon": 21.765 ,
    "elev": 12 ,
    "name": "SAVAST"
  },
  {
    "SID": 2171 ,
    "lat": 65.8083 ,
    "lon": 21.6344 ,
    "elev": 26.8 ,
    "name": "BODEN"
  },
  {
    "SID": 2173 ,
    "lat": 65.6703 ,
    "lon": 21.0664 ,
    "elev": 43.22 ,
    "name": "ALVSBYN"
  },
  {
    "SID": 2174 ,
    "lat": 66.2803 ,
    "lon": 21.1331 ,
    "elev": 186.11 ,
    "name": "LAKATRASK"
  },
  {
    "SID": 2176 ,
    "lat": 65.0353 ,
    "lon": 21.5656 ,
    "elev": 4.03 ,
    "name": "PITE-RONNSKAR"
  },
  {
    "SID": 2181 ,
    "lat": 66.2631 ,
    "lon": 22.8475 ,
    "elev": 61.99 ,
    "name": "OVERKALIX-SVARTBYN"
  },
  {
    "SID": 2183 ,
    "lat": 65.5436 ,
    "lon": 22.1114 ,
    "elev": 32 ,
    "name": "LULEA, SOL"
  },
  {
    "SID": 2184 ,
    "lat": 66.8106 ,
    "lon": 22.3364 ,
    "elev": 228.71 ,
    "name": "PAHAROVA"
  },
  {
    "SID": 2185 ,
    "lat": 65.5433 ,
    "lon": 22.1144 ,
    "elev": 34 ,
    "name": "LULEA-KALLAX"
  },
  {
    "SID": 2186 ,
    "lat": 65.5444 ,
    "lon": 22.1281 ,
    "elev": 17 ,
    "name": "LULEA-KALLAX"
  },
  {
    "SID": 2188 ,
    "lat": 65.3131 ,
    "lon": 22.3756 ,
    "elev": 1.78 ,
    "name": "RODKALLEN"
  },
  {
    "SID": 2191 ,
    "lat": 65.6983 ,
    "lon": 23.1008 ,
    "elev": 3.61 ,
    "name": "STORON"
  },
  {
    "SID": 2196 ,
    "lat": 65.8333 ,
    "lon": 24.1 ,
    "elev": 6 ,
    "name": "HAPARANDA"
  },
  {
    "SID": 2197 ,
    "lat": 65.8236 ,
    "lon": 24.1114 ,
    "elev": 15.1 ,
    "name": "HAPARANDA A"
  },
  {
    "SID": 2199 ,
    "lat": 66.6236 ,
    "lon": 23.4681 ,
    "elev": 132.21 ,
    "name": "YLINENJARVI"
  },
  {
    "SID": 2206 ,
    "lat": 63.2833 ,
    "lon": 12.1333 ,
    "elev": 583 ,
    "name": "STORLIEN-STORVALLEN"
  },
  {
    "SID": 2207 ,
    "lat": 63.2828 ,
    "lon": 12.1219 ,
    "elev": 585 ,
    "name": "STORLIEN-STORVALLEN A"
  },
  {
    "SID": 2209 ,
    "lat": 63.0447 ,
    "lon": 12.2778 ,
    "elev": 1030.11 ,
    "name": "SYLARNA"
  },
  {
    "SID": 2210 ,
    "lat": 63.1864 ,
    "lon": 12.1761 ,
    "elev": 1090 ,
    "name": "BLAHAMMAREN A"
  },
  {
    "SID": 2216 ,
    "lat": 63.3056 ,
    "lon": 13.8767 ,
    "elev": 355 ,
    "name": "MATTMAR"
  },
  {
    "SID": 2217 ,
    "lat": 63.3736 ,
    "lon": 13.1606 ,
    "elev": 435 ,
    "name": "ARE"
  },
  {
    "SID": 2219 ,
    "lat": 64.5044 ,
    "lon": 14.2208 ,
    "elev": 555.1 ,
    "name": "GADDEDE A"
  },
  {
    "SID": 2221 ,
    "lat": 63.8397 ,
    "lon": 13.5039 ,
    "elev": 716.8 ,
    "name": "KORSVATTNET"
  },
  {
    "SID": 2222 ,
    "lat": 64.5 ,
    "lon": 14.1667 ,
    "elev": 330 ,
    "name": "GADDEDE"
  },
  {
    "SID": 2226 ,
    "lat": 63.1956 ,
    "lon": 14.5003 ,
    "elev": 359.2 ,
    "name": "OSTERSUND FROSON"
  },
  {
    "SID": 2229 ,
    "lat": 63.1969 ,
    "lon": 14.4797 ,
    "elev": 374 ,
    "name": "OSTERSUND, SOL"
  },
  {
    "SID": 2230 ,
    "lat": 64.2183 ,
    "lon": 15.5564 ,
    "elev": 309.95 ,
    "name": "GUBBHOGEN"
  },
  {
    "SID": 2231 ,
    "lat": 63.6772 ,
    "lon": 14.6081 ,
    "elev": 361.75 ,
    "name": "FOLLINGE"
  },
  {
    "SID": 2233 ,
    "lat": 64.9678 ,
    "lon": 15.3792 ,
    "elev": 545 ,
    "name": "SAXNAS"
  },
  {
    "SID": 2236 ,
    "lat": 63.7694 ,
    "lon": 15.3311 ,
    "elev": 376.53 ,
    "name": "HALLHAXASEN"
  },
  {
    "SID": 2242 ,
    "lat": 64.0886 ,
    "lon": 16.2389 ,
    "elev": 241.23 ,
    "name": "HOTING"
  },
  {
    "SID": 2243 ,
    "lat": 63.6839 ,
    "lon": 16.95 ,
    "elev": 220.6 ,
    "name": "JUNSELE"
  },
  {
    "SID": 2244 ,
    "lat": 63.6833 ,
    "lon": 16.95 ,
    "elev": 217 ,
    "name": "JUNSELE"
  },
  {
    "SID": 2245 ,
    "lat": 64.5811 ,
    "lon": 16.8422 ,
    "elev": 349.3 ,
    "name": "VILHELMINA"
  },
  {
    "SID": 2247 ,
    "lat": 63.1522 ,
    "lon": 16.1733 ,
    "elev": 184.11 ,
    "name": "KRANGEDE"
  },
  {
    "SID": 2254 ,
    "lat": 64.1661 ,
    "lon": 17.3189 ,
    "elev": 308.5 ,
    "name": "ASELE"
  },
  {
    "SID": 2256 ,
    "lat": 64.7344 ,
    "lon": 17.4033 ,
    "elev": 575 ,
    "name": "RISTRASK"
  },
  {
    "SID": 2260 ,
    "lat": 63.1253 ,
    "lon": 18.2556 ,
    "elev": 142.74 ,
    "name": "VASTMARKUM"
  },
  {
    "SID": 2261 ,
    "lat": 64.5494 ,
    "lon": 18.7169 ,
    "elev": 211.08 ,
    "name": "LYCKSELE"
  },
  {
    "SID": 2263 ,
    "lat": 64.0756 ,
    "lon": 18.3656 ,
    "elev": 327.41 ,
    "name": "FREDRIKA"
  },
  {
    "SID": 2265 ,
    "lat": 63.6514 ,
    "lon": 18.5503 ,
    "elev": 183.45 ,
    "name": "HEMLING"
  },
  {
    "SID": 2267 ,
    "lat": 63.4117 ,
    "lon": 18.9797 ,
    "elev": 100 ,
    "name": "ORNSKOLDSVIK"
  },
  {
    "SID": 2269 ,
    "lat": 63.1886 ,
    "lon": 19.0206 ,
    "elev": 11.39 ,
    "name": "SKAGSUDDE"
  },
  {
    "SID": 2271 ,
    "lat": 64.9264 ,
    "lon": 19.3786 ,
    "elev": 310.5 ,
    "name": "NORSJO"
  },
  {
    "SID": 2282 ,
    "lat": 64.5669 ,
    "lon": 19.6986 ,
    "elev": 258.03 ,
    "name": "PETISTRASK"
  },
  {
    "SID": 2283 ,
    "lat": 63.8111 ,
    "lon": 20.2397 ,
    "elev": 22 ,
    "name": "UMEA, SOL"
  },
  {
    "SID": 2284 ,
    "lat": 63.4361 ,
    "lon": 19.6769 ,
    "elev": 7.21 ,
    "name": "JARNASKLUBB"
  },
  {
    "SID": 2286 ,
    "lat": 63.8 ,
    "lon": 20.2833 ,
    "elev": 7.7 ,
    "name": "UMEA"
  },
  {
    "SID": 2287 ,
    "lat": 63.8069 ,
    "lon": 20.8644 ,
    "elev": 7.9 ,
    "name": "HOLMON"
  },
  {
    "SID": 2288 ,
    "lat": 63.6 ,
    "lon": 20.75 ,
    "elev": 6 ,
    "name": "HOLMOGADD"
  },
  {
    "SID": 2292 ,
    "lat": 64.4358 ,
    "lon": 21.28 ,
    "elev": 105 ,
    "name": "HOKMARKSBERGET"
  },
  {
    "SID": 2293 ,
    "lat": 64.6247 ,
    "lon": 21.0769 ,
    "elev": 43.95 ,
    "name": "SKELLEFTEA"
  },
  {
    "SID": 2297 ,
    "lat": 64.4814 ,
    "lon": 21.5792 ,
    "elev": 36.77 ,
    "name": "BJUROKLUBB"
  },
  {
    "SID": 2302 ,
    "lat": 61.84 ,
    "lon": 12.2872 ,
    "elev": 664.7 ,
    "name": "STORBO/IDRE"
  },
  {
    "SID": 2303 ,
    "lat": 62.7292 ,
    "lon": 12.7264 ,
    "elev": 995 ,
    "name": "FLATRUET"
  },
  {
    "SID": 2307 ,
    "lat": 61.8894 ,
    "lon": 12.8544 ,
    "elev": 868.66 ,
    "name": "IDRE FJALL"
  },
  {
    "SID": 2308 ,
    "lat": 62.4503 ,
    "lon": 12.6703 ,
    "elev": 724.3 ,
    "name": "TANNAS"
  },
  {
    "SID": 2311 ,
    "lat": 61.1581 ,
    "lon": 13.1139 ,
    "elev": 744 ,
    "name": "HOGFJALLSHOTELLET"
  },
  {
    "SID": 2316 ,
    "lat": 61.6912 ,
    "lon": 13.1865 ,
    "elev": 425 ,
    "name": ""
  },
  {
    "SID": 2317 ,
    "lat": 62.0944 ,
    "lon": 13.6117 ,
    "elev": 566.34 ,
    "name": "DRAVAGEN"
  },
  {
    "SID": 2319 ,
    "lat": 62.7558 ,
    "lon": 13.8458 ,
    "elev": 466.94 ,
    "name": "BORTNAN"
  },
  {
    "SID": 2321 ,
    "lat": 61.2544 ,
    "lon": 14.0386 ,
    "elev": 252.96 ,
    "name": "ALVDALEN"
  },
  {
    "SID": 2324 ,
    "lat": 62.0192 ,
    "lon": 14.1906 ,
    "elev": 363 ,
    "name": "SVEG"
  },
  {
    "SID": 2325 ,
    "lat": 62.4961 ,
    "lon": 14.1572 ,
    "elev": 802.88 ,
    "name": "KLOVSJOHOJDEN"
  },
  {
    "SID": 2327 ,
    "lat": 62.0461 ,
    "lon": 14.4069 ,
    "elev": 359.3 ,
    "name": "SVEG A"
  },
  {
    "SID": 2329 ,
    "lat": 61.6606 ,
    "lon": 14.995 ,
    "elev": 455.13 ,
    "name": "HAMRA"
  },
  {
    "SID": 2331 ,
    "lat": 62.7514 ,
    "lon": 15.0878 ,
    "elev": 343.19 ,
    "name": "HUNGE"
  },
  {
    "SID": 2337 ,
    "lat": 62.2631 ,
    "lon": 15.6708 ,
    "elev": 320 ,
    "name": "NORRHOG"
  },
  {
    "SID": 2338 ,
    "lat": 61.3614 ,
    "lon": 15.7178 ,
    "elev": 184.99 ,
    "name": "EDSBYN"
  },
  {
    "SID": 2343 ,
    "lat": 62.4944 ,
    "lon": 16.2775 ,
    "elev": 100.21 ,
    "name": "TORPSHAMMAR"
  },
  {
    "SID": 2347 ,
    "lat": 61.8272 ,
    "lon": 16.5419 ,
    "elev": 71.92 ,
    "name": "DELSBO"
  },
  {
    "SID": 2349 ,
    "lat": 62.7628 ,
    "lon": 16.7392 ,
    "elev": 205 ,
    "name": "SILLRE"
  },
  {
    "SID": 2354 ,
    "lat": 62.4306 ,
    "lon": 17.3447 ,
    "elev": 80 ,
    "name": "RASTA"
  },
  {
    "SID": 2355 ,
    "lat": 61.7033 ,
    "lon": 17.5253 ,
    "elev": 10.08 ,
    "name": "KUGGOREN"
  },
  {
    "SID": 2365 ,
    "lat": 62.5317 ,
    "lon": 17.4361 ,
    "elev": 3.9 ,
    "name": "SUNDSVALL HARNOSAND"
  },
  {
    "SID": 2366 ,
    "lat": 62.5228 ,
    "lon": 17.4494 ,
    "elev": 8.5 ,
    "name": "SUNDSVALL HARNOSAND"
  },
  {
    "SID": 2368 ,
    "lat": 62.2208 ,
    "lon": 17.7428 ,
    "elev": 17.66 ,
    "name": "BRAMON"
  },
  {
    "SID": 2378 ,
    "lat": 61.2614 ,
    "lon": 17.0983 ,
    "elev": 27 ,
    "name": "SODERHAMN FLYGPLATS"
  },
  {
    "SID": 2382 ,
    "lat": 62.6431 ,
    "lon": 18.0931 ,
    "elev": 17.82 ,
    "name": "LUNGO"
  },
  {
    "SID": 2403 ,
    "lat": 58.6994 ,
    "lon": 13.1111 ,
    "elev": 53.02 ,
    "name": "NAVEN"
  },
  {
    "SID": 2407 ,
    "lat": 60.6764 ,
    "lon": 13.7072 ,
    "elev": 304.5 ,
    "name": "MALUNG A"
  },
  {
    "SID": 2408 ,
    "lat": 59.2219 ,
    "lon": 12.0781 ,
    "elev": 171.24 ,
    "name": "BLOMSKOG"
  },
  {
    "SID": 2410 ,
    "lat": 60.6814 ,
    "lon": 13.6997 ,
    "elev": 308 ,
    "name": "MALUNG"
  },
  {
    "SID": 2411 ,
    "lat": 59.6747 ,
    "lon": 12.6381 ,
    "elev": 67.09 ,
    "name": "ARVIKA"
  },
  {
    "SID": 2413 ,
    "lat": 60.7569 ,
    "lon": 12.7722 ,
    "elev": 205 ,
    "name": "BRATTMON"
  },
  {
    "SID": 2417 ,
    "lat": 58.75 ,
    "lon": 13.15 ,
    "elev": 50 ,
    "name": "PALGRUNDEN"
  },
  {
    "SID": 2418 ,
    "lat": 59.4447 ,
    "lon": 13.3375 ,
    "elev": 99.5 ,
    "name": "KARLSTAD FLYGPLATS"
  },
  {
    "SID": 2419 ,
    "lat": 59.3592 ,
    "lon": 13.4719 ,
    "elev": 46 ,
    "name": "KARLSTAD, SOL"
  },
  {
    "SID": 2423 ,
    "lat": 59.8644 ,
    "lon": 13.1194 ,
    "elev": 109.1 ,
    "name": "SUNNE"
  },
  {
    "SID": 2426 ,
    "lat": 60.1539 ,
    "lon": 13.8019 ,
    "elev": 188.46 ,
    "name": "GUSTAVSFORS"
  },
  {
    "SID": 2429 ,
    "lat": 59.6619 ,
    "lon": 14.1831 ,
    "elev": 133.39 ,
    "name": "DAGLOSEN"
  },
  {
    "SID": 2431 ,
    "lat": 59.8703 ,
    "lon": 15.2522 ,
    "elev": 284.3 ,
    "name": "KLOTEN"
  },
  {
    "SID": 2432 ,
    "lat": 59.2289 ,
    "lon": 15.0456 ,
    "elev": 53 ,
    "name": "OREBRO"
  },
  {
    "SID": 2435 ,
    "lat": 60.4292 ,
    "lon": 15.5008 ,
    "elev": 149.9 ,
    "name": "BORLANGE"
  },
  {
    "SID": 2440 ,
    "lat": 60.9622 ,
    "lon": 16.4311 ,
    "elev": 161.82 ,
    "name": "AMOT"
  },
  {
    "SID": 2441 ,
    "lat": 60.9608 ,
    "lon": 14.5072 ,
    "elev": 197.02 ,
    "name": "MORA"
  },
  {
    "SID": 2443 ,
    "lat": 59.65 ,
    "lon": 17.1167 ,
    "elev": 26 ,
    "name": "ENKOPING"
  },
  {
    "SID": 2449 ,
    "lat": 59.3825 ,
    "lon": 16.4522 ,
    "elev": 12.4 ,
    "name": "ESKILSTUNA"
  },
  {
    "SID": 2450 ,
    "lat": 60.7306 ,
    "lon": 17.5614 ,
    "elev": 3.93 ,
    "name": "EGGEGRUND"
  },
  {
    "SID": 2452 ,
    "lat": 59.2994 ,
    "lon": 14.8986 ,
    "elev": 218.85 ,
    "name": "KILSBERGEN-SUTTARBODA"
  },
  {
    "SID": 2453 ,
    "lat": 60.7169 ,
    "lon": 17.1642 ,
    "elev": 16.19 ,
    "name": "GAVLE"
  },
  {
    "SID": 2456 ,
    "lat": 60.2358 ,
    "lon": 17.9044 ,
    "elev": 34.57 ,
    "name": "FILM"
  },
  {
    "SID": 2458 ,
    "lat": 59.9008 ,
    "lon": 17.5958 ,
    "elev": 21 ,
    "name": "UPPSALA"
  },
  {
    "SID": 2460 ,
    "lat": 59.6264 ,
    "lon": 17.9508 ,
    "elev": 27.6 ,
    "name": "STOCKHOLM-ARLANDA"
  },
  {
    "SID": 2462 ,
    "lat": 59.8667 ,
    "lon": 17.6333 ,
    "elev": 13 ,
    "name": "UPPSALA UNIVERSITY"
  },
  {
    "SID": 2464 ,
    "lat": 59.3653 ,
    "lon": 17.8978 ,
    "elev": 13.6 ,
    "name": "STOCKHOLM/BROMMA"
  },
  {
    "SID": 2468 ,
    "lat": 60.3822 ,
    "lon": 15.1406 ,
    "elev": 492.58 ,
    "name": "STORA SPANSBERGET"
  },
  {
    "SID": 2469 ,
    "lat": 59.1789 ,
    "lon": 17.9128 ,
    "elev": 44.68 ,
    "name": "TULLINGE"
  },
  {
    "SID": 2472 ,
    "lat": 60.1228 ,
    "lon": 15.1228 ,
    "elev": 240 ,
    "name": "SKEPPMORA"
  },
  {
    "SID": 2476 ,
    "lat": 59.0564 ,
    "lon": 16.3978 ,
    "elev": 33 ,
    "name": "FLODA"
  },
  {
    "SID": 2481 ,
    "lat": 59.9097 ,
    "lon": 16.6878 ,
    "elev": 58.11 ,
    "name": "SALA"
  },
  {
    "SID": 2482 ,
    "lat": 60.2689 ,
    "lon": 16.9772 ,
    "elev": 57.13 ,
    "name": "KERSTINBO"
  },
  {
    "SID": 2483 ,
    "lat": 59.3533 ,
    "lon": 18.0633 ,
    "elev": 30 ,
    "name": "STOCKHOLM, SOL"
  },
  {
    "SID": 2484 ,
    "lat": 59.35 ,
    "lon": 18.0667 ,
    "elev": 44 ,
    "name": "STOCKHOLM/OBSERVATORIET"
  },
  {
    "SID": 2485 ,
    "lat": 59.35 ,
    "lon": 18.0667 ,
    "elev": 52 ,
    "name": "STOCKHOLM"
  },
  {
    "SID": 2486 ,
    "lat": 59.3583 ,
    "lon": 17.5244 ,
    "elev": 6.31 ,
    "name": "ADELSO"
  },
  {
    "SID": 2487 ,
    "lat": 59.2997 ,
    "lon": 18.7047 ,
    "elev": 17.58 ,
    "name": "STAVSNAS"
  },
  {
    "SID": 2488 ,
    "lat": 60.5261 ,
    "lon": 18.3767 ,
    "elev": 9.49 ,
    "name": "ORSKAR"
  },
  {
    "SID": 2489 ,
    "lat": 59.0678 ,
    "lon": 18.1089 ,
    "elev": 6 ,
    "name": "BERGA"
  },
  {
    "SID": 2490 ,
    "lat": 59.8322 ,
    "lon": 18.6347 ,
    "elev": 16.22 ,
    "name": "SVANBERGA"
  },
  {
    "SID": 2492 ,
    "lat": 59.4422 ,
    "lon": 19.5019 ,
    "elev": 10 ,
    "name": "SVENSKA HOGARNA, SOL"
  },
  {
    "SID": 2493 ,
    "lat": 59.7536 ,
    "lon": 19.4089 ,
    "elev": 14.83 ,
    "name": "SODERARM"
  },
  {
    "SID": 2496 ,
    "lat": 59.4444 ,
    "lon": 19.5058 ,
    "elev": 12 ,
    "name": "SVENSKA HOGARNA"
  },
  {
    "SID": 2498 ,
    "lat": 59.4422 ,
    "lon": 19.5022 ,
    "elev": 13.6 ,
    "name": "SVENSKA HOGARNA A"
  },
  {
    "SID": 2499 ,
    "lat": 59.15 ,
    "lon": 19.13 ,
    "elev": 25 ,
    "name": "ALMAGRUNDET"
  },
  {
    "SID": 2500 ,
    "lat": 58.8919 ,
    "lon": 11.0039 ,
    "elev": 34.6 ,
    "name": "NORDKOSTER"
  },
  {
    "SID": 2501 ,
    "lat": 58.5761 ,
    "lon": 11.0661 ,
    "elev": 23.6 ,
    "name": "VADEROARNA"
  },
  {
    "SID": 2503 ,
    "lat": 58.8919 ,
    "lon": 11.0039 ,
    "elev": 33 ,
    "name": "NORDKOSTER, SOL"
  },
  {
    "SID": 2505 ,
    "lat": 58.0942 ,
    "lon": 11.3336 ,
    "elev": 15.74 ,
    "name": "MASESKAR"
  },
  {
    "SID": 2507 ,
    "lat": 58.6608 ,
    "lon": 11.4178 ,
    "elev": 80 ,
    "name": "HUD"
  },
  {
    "SID": 2512 ,
    "lat": 57.7833 ,
    "lon": 11.8833 ,
    "elev": 16 ,
    "name": "GOTEBORG/SAVE"
  },
  {
    "SID": 2513 ,
    "lat": 57.7156 ,
    "lon": 11.9925 ,
    "elev": 3.4 ,
    "name": "GOTEBORG"
  },
  {
    "SID": 2515 ,
    "lat": 58.1997 ,
    "lon": 12.1542 ,
    "elev": 20 ,
    "name": "TORPABRON"
  },
  {
    "SID": 2516 ,
    "lat": 57.6322 ,
    "lon": 11.6047 ,
    "elev": 19 ,
    "name": "VINGA"
  },
  {
    "SID": 2517 ,
    "lat": 57.6 ,
    "lon": 11.63 ,
    "elev": 26 ,
    "name": "TRUBADUREN"
  },
  {
    "SID": 2518 ,
    "lat": 57.3039 ,
    "lon": 11.9064 ,
    "elev": 1.7 ,
    "name": "NIDINGEN"
  },
  {
    "SID": 2520 ,
    "lat": 58.4289 ,
    "lon": 12.7139 ,
    "elev": 54 ,
    "name": "SATENAS"
  },
  {
    "SID": 2521 ,
    "lat": 58.6003 ,
    "lon": 12.4131 ,
    "elev": 55 ,
    "name": "BERGARUD"
  },
  {
    "SID": 2526 ,
    "lat": 57.6761 ,
    "lon": 12.2919 ,
    "elev": 155.2 ,
    "name": "GOTEBORG-LANDVETTER"
  },
  {
    "SID": 2527 ,
    "lat": 57.6572 ,
    "lon": 12.2911 ,
    "elev": 164 ,
    "name": "GOTEBORG/LANDVETTER"
  },
  {
    "SID": 2531 ,
    "lat": 57.6878 ,
    "lon": 11.9794 ,
    "elev": 94 ,
    "name": "GOTEBORG, SOL"
  },
  {
    "SID": 2536 ,
    "lat": 57.785 ,
    "lon": 13.1669 ,
    "elev": 298.75 ,
    "name": "RANGEDALA"
  },
  {
    "SID": 2539 ,
    "lat": 57.1136 ,
    "lon": 12.7758 ,
    "elev": 122.28 ,
    "name": "ULLARED"
  },
  {
    "SID": 2540 ,
    "lat": 58.6069 ,
    "lon": 12.1975 ,
    "elev": 173.71 ,
    "name": "KROPPEFJALL-GRANAN"
  },
  {
    "SID": 2542 ,
    "lat": 58.3222 ,
    "lon": 13.0406 ,
    "elev": 71.33 ,
    "name": "HALLUM"
  },
  {
    "SID": 2544 ,
    "lat": 58.5136 ,
    "lon": 14.5072 ,
    "elev": 93.5 ,
    "name": "KARLSBORG"
  },
  {
    "SID": 2545 ,
    "lat": 58.5667 ,
    "lon": 14.5667 ,
    "elev": 93 ,
    "name": "AXSTAL"
  },
  {
    "SID": 2546 ,
    "lat": 58.8772 ,
    "lon": 14.3906 ,
    "elev": 212.07 ,
    "name": "GARDSJO"
  },
  {
    "SID": 2548 ,
    "lat": 58.0953 ,
    "lon": 14.4086 ,
    "elev": 94.83 ,
    "name": "VISINGSO"
  },
  {
    "SID": 2549 ,
    "lat": 57.4983 ,
    "lon": 14.4675 ,
    "elev": 356.13 ,
    "name": "TOMTABACKEN"
  },
  {
    "SID": 2550 ,
    "lat": 57.7514 ,
    "lon": 14.0692 ,
    "elev": 223.5 ,
    "name": "JONKOPING/AXAMO"
  },
  {
    "SID": 2552 ,
    "lat": 58.0719 ,
    "lon": 15.2361 ,
    "elev": 197.16 ,
    "name": "MALEXANDER"
  },
  {
    "SID": 2553 ,
    "lat": 58.0794 ,
    "lon": 13.785 ,
    "elev": 220 ,
    "name": "KYMBO"
  },
  {
    "SID": 2554 ,
    "lat": 58.7161 ,
    "lon": 15.0303 ,
    "elev": 225.08 ,
    "name": "KETTSTAKA"
  },
  {
    "SID": 2556 ,
    "lat": 57.2925 ,
    "lon": 14.14 ,
    "elev": 169 ,
    "name": "HAGSHULT"
  },
  {
    "SID": 2557 ,
    "lat": 57.8864 ,
    "lon": 15.8656 ,
    "elev": 91.25 ,
    "name": "HORN"
  },
  {
    "SID": 2558 ,
    "lat": 58.6894 ,
    "lon": 16.3106 ,
    "elev": 154.8 ,
    "name": "KOLMARDEN-STROMSFORS"
  },
  {
    "SID": 2559 ,
    "lat": 57.7072 ,
    "lon": 16.4586 ,
    "elev": 30.53 ,
    "name": "GLADHAMMAR"
  },
  {
    "SID": 2561 ,
    "lat": 58.6403 ,
    "lon": 15.4336 ,
    "elev": 73.7 ,
    "name": "KVARN"
  },
  {
    "SID": 2562 ,
    "lat": 58.3981 ,
    "lon": 15.5258 ,
    "elev": 93 ,
    "name": "LINKOPING/MALMSLATT"
  },
  {
    "SID": 2563 ,
    "lat": 58.2506 ,
    "lon": 17.0106 ,
    "elev": 17.85 ,
    "name": "HARSTENA"
  },
  {
    "SID": 2565 ,
    "lat": 57.3844 ,
    "lon": 15.8011 ,
    "elev": 97.7 ,
    "name": "MALILLA"
  },
  {
    "SID": 2566 ,
    "lat": 57.4 ,
    "lon": 15.8167 ,
    "elev": 98 ,
    "name": "MALILLA"
  },
  {
    "SID": 2567 ,
    "lat": 58.7436 ,
    "lon": 17.8719 ,
    "elev": 19.89 ,
    "name": "LANDSORT"
  },
  {
    "SID": 2573 ,
    "lat": 57.3672 ,
    "lon": 17.0986 ,
    "elev": 2 ,
    "name": "ORLANDS NORRA UDDE, SOL"
  },
  {
    "SID": 2574 ,
    "lat": 58.5828 ,
    "lon": 16.1486 ,
    "elev": 34.7 ,
    "name": "NORRKOPING"
  },
  {
    "SID": 2575 ,
    "lat": 57.3672 ,
    "lon": 17.0986 ,
    "elev": 3.59 ,
    "name": "OLANDS NORRA UDDE"
  },
  {
    "SID": 2583 ,
    "lat": 58.6 ,
    "lon": 17.47 ,
    "elev": 25 ,
    "name": "GUSTAF DAHLEN"
  },
  {
    "SID": 2584 ,
    "lat": 58.4 ,
    "lon": 19.2 ,
    "elev": 12 ,
    "name": "GOTSKA SANDON"
  },
  {
    "SID": 2587 ,
    "lat": 57.9169 ,
    "lon": 18.9569 ,
    "elev": 12.92 ,
    "name": "FAROSUND-AR"
  },
  {
    "SID": 2589 ,
    "lat": 58.3944 ,
    "lon": 19.1978 ,
    "elev": 17.21 ,
    "name": "GOTSKA SANDON"
  },
  {
    "SID": 2590 ,
    "lat": 57.6667 ,
    "lon": 18.35 ,
    "elev": 47 ,
    "name": "VISBY"
  },
  {
    "SID": 2591 ,
    "lat": 57.65 ,
    "lon": 18.35 ,
    "elev": 47 ,
    "name": "VISBY AEROLOGISKA STATION"
  },
  {
    "SID": 2595 ,
    "lat": 57.5436 ,
    "lon": 18.4253 ,
    "elev": 35 ,
    "name": "ROMA"
  },
  {
    "SID": 2598 ,
    "lat": 57.4414 ,
    "lon": 18.9844 ,
    "elev": 5 ,
    "name": "OSTERGARNSHOLM"
  },
  {
    "SID": 2602 ,
    "lat": 56.4042 ,
    "lon": 12.9436 ,
    "elev": 140 ,
    "name": "HALLANDSASEN"
  },
  {
    "SID": 2603 ,
    "lat": 56.8625 ,
    "lon": 12.6628 ,
    "elev": 47 ,
    "name": "BROEN"
  },
  {
    "SID": 2605 ,
    "lat": 56.4497 ,
    "lon": 12.5472 ,
    "elev": 10.08 ,
    "name": "HALLANDS VADERO"
  },
  {
    "SID": 2607 ,
    "lat": 56.2978 ,
    "lon": 12.8442 ,
    "elev": 36.5 ,
    "name": "ANGELHOLM-BARKAKRA"
  },
  {
    "SID": 2609 ,
    "lat": 55.4742 ,
    "lon": 13.6683 ,
    "elev": 50 ,
    "name": "RYNGE"
  },
  {
    "SID": 2611 ,
    "lat": 56.0306 ,
    "lon": 12.7653 ,
    "elev": 44.27 ,
    "name": "HELSINGBORG"
  },
  {
    "SID": 2615 ,
    "lat": 55.3836 ,
    "lon": 12.8167 ,
    "elev": 3.5 ,
    "name": "FALSTERBO A"
  },
  {
    "SID": 2616 ,
    "lat": 55.3839 ,
    "lon": 12.8194 ,
    "elev": 5 ,
    "name": "FALSTERBO"
  },
  {
    "SID": 2618 ,
    "lat": 56.9494 ,
    "lon": 13.0603 ,
    "elev": 134.6 ,
    "name": "TORPUP"
  },
  {
    "SID": 2620 ,
    "lat": 56.9667 ,
    "lon": 13.0667 ,
    "elev": 87 ,
    "name": "TORUP"
  },
  {
    "SID": 2622 ,
    "lat": 56.8528 ,
    "lon": 13.8822 ,
    "elev": 148.47 ,
    "name": "LJUNGBY"
  },
  {
    "SID": 2623 ,
    "lat": 55.8633 ,
    "lon": 13.6689 ,
    "elev": 113.58 ,
    "name": "HORBY"
  },
  {
    "SID": 2625 ,
    "lat": 55.4889 ,
    "lon": 14.3172 ,
    "elev": 5.25 ,
    "name": "SKILLINGE"
  },
  {
    "SID": 2628 ,
    "lat": 56.0139 ,
    "lon": 14.8494 ,
    "elev": 60.4 ,
    "name": "HANO"
  },
  {
    "SID": 2629 ,
    "lat": 56.2744 ,
    "lon": 13.9378 ,
    "elev": 104 ,
    "name": "HASTVEDA"
  },
  {
    "SID": 2632 ,
    "lat": 55.9558 ,
    "lon": 15.7078 ,
    "elev": 2.49 ,
    "name": "UTKLIPPAN"
  },
  {
    "SID": 2633 ,
    "lat": 55.7139 ,
    "lon": 13.2122 ,
    "elev": 86 ,
    "name": "LUND, SOL"
  },
  {
    "SID": 2635 ,
    "lat": 55.5714 ,
    "lon": 13.0736 ,
    "elev": 20.81 ,
    "name": "MALMO"
  },
  {
    "SID": 2636 ,
    "lat": 55.5231 ,
    "lon": 13.3789 ,
    "elev": 73 ,
    "name": "MALMO-STURUP"
  },
  {
    "SID": 2643 ,
    "lat": 56.9269 ,
    "lon": 14.7306 ,
    "elev": 182 ,
    "name": "VAXJO, SOL"
  },
  {
    "SID": 2644 ,
    "lat": 56.1978 ,
    "lon": 16.4036 ,
    "elev": 3.05 ,
    "name": "OLANDS SODRA UDDE"
  },
  {
    "SID": 2646 ,
    "lat": 56.6669 ,
    "lon": 16.4608 ,
    "elev": 0 ,
    "name": "OLANDSBRON LAG"
  },
  {
    "SID": 2648 ,
    "lat": 56.8464 ,
    "lon": 14.8325 ,
    "elev": 200 ,
    "name": "VAXJO"
  },
  {
    "SID": 2652 ,
    "lat": 56.0239 ,
    "lon": 14.1028 ,
    "elev": 10 ,
    "name": "KRISTIANSTAD"
  },
  {
    "SID": 2661 ,
    "lat": 56.845 ,
    "lon": 15.4722 ,
    "elev": 231.5 ,
    "name": "KOSTA (ORREFORS)"
  },
  {
    "SID": 2664 ,
    "lat": 56.2669 ,
    "lon": 15.2681 ,
    "elev": 58 ,
    "name": "RONNEBY-BREDAKRA"
  },
  {
    "SID": 2665 ,
    "lat": 56.1094 ,
    "lon": 15.6231 ,
    "elev": 8 ,
    "name": "KARLSKRONA, SOL"
  },
  {
    "SID": 2667 ,
    "lat": 56.1431 ,
    "lon": 15.5867 ,
    "elev": 4.1 ,
    "name": "KARLSKRONA-SODERSTJERNA"
  },
  {
    "SID": 2670 ,
    "lat": 56.6833 ,
    "lon": 16.3 ,
    "elev": 4.2 ,
    "name": "KALMAR"
  },
  {
    "SID": 2679 ,
    "lat": 56.9211 ,
    "lon": 18.1506 ,
    "elev": 36.3 ,
    "name": "HOBURG A"
  },
  {
    "SID": 2680 ,
    "lat": 56.9222 ,
    "lon": 18.155 ,
    "elev": 39 ,
    "name": "HOBURG"
  },
  {
    "SID": 2701 ,
    "lat": 69.05 ,
    "lon": 20.85 ,
    "elev": 1009 ,
    "name": "KILPISJARVI SAANA"
  },
  {
    "SID": 2702 ,
    "lat": 69.1333 ,
    "lon": 27.2667 ,
    "elev": 156 ,
    "name": ""
  },
  {
    "SID": 2703 ,
    "lat": 60.2 ,
    "lon": 24.75 ,
    "elev": 32 ,
    "name": "ESPOO SEPANKYLA"
  },
  {
    "SID": 2704 ,
    "lat": 61.1167 ,
    "lon": 24.3333 ,
    "elev": 87 ,
    "name": "HATTULA LEPAA AWS"
  },
  {
    "SID": 2705 ,
    "lat": 67.0167 ,
    "lon": 27.2167 ,
    "elev": 493 ,
    "name": "PELKOSENNIEMI PYHATUNTURI"
  },
  {
    "SID": 2706 ,
    "lat": 60.25 ,
    "lon": 24.05 ,
    "elev": 37 ,
    "name": "LOHJA PORLA"
  },
  {
    "SID": 2708 ,
    "lat": 62.1833 ,
    "lon": 22.7997 ,
    "elev": 161 ,
    "name": ""
  },
  {
    "SID": 2710 ,
    "lat": 62.95 ,
    "lon": 26.4 ,
    "elev": 127 ,
    "name": "VESANTO KK"
  },
  {
    "SID": 2711 ,
    "lat": 63.1 ,
    "lon": 21.6167 ,
    "elev": 13 ,
    "name": "VAASA KESKUSTA"
  },
  {
    "SID": 2713 ,
    "lat": 61.2167 ,
    "lon": 25.1328 ,
    "elev": 134 ,
    "name": ""
  },
  {
    "SID": 2714 ,
    "lat": 64.4833 ,
    "lon": 26.4667 ,
    "elev": 115 ,
    "name": "VAALA PELSO"
  },
  {
    "SID": 2715 ,
    "lat": 64.8333 ,
    "lon": 28.2333 ,
    "elev": 320 ,
    "name": "HYRYNSALMI KYTOMAKI"
  },
  {
    "SID": 2716 ,
    "lat": 65.9333 ,
    "lon": 26.5167 ,
    "elev": 154 ,
    "name": "RANUA KK"
  },
  {
    "SID": 2717 ,
    "lat": 68.1667 ,
    "lon": 25.7667 ,
    "elev": 272 ,
    "name": "KITTILA POKKA"
  },
  {
    "SID": 2718 ,
    "lat": 61.5225 ,
    "lon": 28.185 ,
    "elev": 98 ,
    "name": ""
  },
  {
    "SID": 2719 ,
    "lat": 67.8167 ,
    "lon": 27.75 ,
    "elev": 243 ,
    "name": "SODANKYLA LOKKA"
  },
  {
    "SID": 2720 ,
    "lat": 67.6961 ,
    "lon": 24.8581 ,
    "elev": 191.4 ,
    "name": ""
  },
  {
    "SID": 2721 ,
    "lat": 63.95 ,
    "lon": 22.85 ,
    "elev": 6 ,
    "name": "KOKKOLA TANKAR"
  },
  {
    "SID": 2722 ,
    "lat": 68.4167 ,
    "lon": 27.4167 ,
    "elev": 320 ,
    "name": "INARI SAARISELKA"
  },
  {
    "SID": 2723 ,
    "lat": 67.7833 ,
    "lon": 24.85 ,
    "elev": 200 ,
    "name": "KITTILA LEVITUNTURI"
  },
  {
    "SID": 2724 ,
    "lat": 60.1158 ,
    "lon": 20.2975 ,
    "elev": 16 ,
    "name": ""
  },
  {
    "SID": 2725 ,
    "lat": 63.45 ,
    "lon": 24.45 ,
    "elev": 153 ,
    "name": "HALSUA KANALA PUROLA"
  },
  {
    "SID": 2726 ,
    "lat": 68.6 ,
    "lon": 23.5833 ,
    "elev": 377 ,
    "name": "ENONTEKIO NAKKALA"
  },
  {
    "SID": 2727 ,
    "lat": 61.2667 ,
    "lon": 25.5167 ,
    "elev": 76 ,
    "name": "ASIKKALA PULKKILANHARJU"
  },
  {
    "SID": 2728 ,
    "lat": 61.3 ,
    "lon": 28.1833 ,
    "elev": 88 ,
    "name": "TAIPALSAARI KYLANIEMI"
  },
  {
    "SID": 2729 ,
    "lat": 61.8833 ,
    "lon": 25.3333 ,
    "elev": 205 ,
    "name": "JAMSA HIMOS"
  },
  {
    "SID": 2730 ,
    "lat": 61.8333 ,
    "lon": 28.85 ,
    "elev": 157 ,
    "name": "SAVONLINNA RUUNAVUORI"
  },
  {
    "SID": 2731 ,
    "lat": 61.5333 ,
    "lon": 28.2 ,
    "elev": 127 ,
    "name": "PUUMALA KK"
  },
  {
    "SID": 2732 ,
    "lat": 62.8 ,
    "lon": 27.9 ,
    "elev": 87 ,
    "name": "KUOPIO RITONIEMI"
  },
  {
    "SID": 2733 ,
    "lat": 61.0333 ,
    "lon": 28.5667 ,
    "elev": 46 ,
    "name": "JOUTSENO KONNUNSUO"
  },
  {
    "SID": 2734 ,
    "lat": 61.45 ,
    "lon": 29.4667 ,
    "elev": 75 ,
    "name": "PARIKKALA KOITSANLAHTI"
  },
  {
    "SID": 2735 ,
    "lat": 62.3333 ,
    "lon": 23.55 ,
    "elev": 140 ,
    "name": "VIRRAT AIJANNEVA"
  },
  {
    "SID": 2736 ,
    "lat": 61.9 ,
    "lon": 27.8833 ,
    "elev": 112 ,
    "name": "JUVA PARTAALA"
  },
  {
    "SID": 2737 ,
    "lat": 63.8167 ,
    "lon": 24.1667 ,
    "elev": 85 ,
    "name": "TOHOLAMPI LAITALA"
  },
  {
    "SID": 2738 ,
    "lat": 63.7333 ,
    "lon": 25.7167 ,
    "elev": 153 ,
    "name": "PYHAJARVI OL OJAKYLA"
  },
  {
    "SID": 2739 ,
    "lat": 64.1167 ,
    "lon": 28.35 ,
    "elev": 163 ,
    "name": "SOTKAMI KUOLANIEMI"
  },
  {
    "SID": 2740 ,
    "lat": 65.8833 ,
    "lon": 24.2667 ,
    "elev": 9 ,
    "name": "TORNIO LIAKKA"
  },
  {
    "SID": 2741 ,
    "lat": 60.1833 ,
    "lon": 19.9833 ,
    "elev": 13 ,
    "name": "JOMALA JOMALABY"
  },
  {
    "SID": 2743 ,
    "lat": 59.8667 ,
    "lon": 22.2 ,
    "elev": 8 ,
    "name": "DRAGSF JARD VANO"
  },
  {
    "SID": 2745 ,
    "lat": 67.1667 ,
    "lon": 29.1833 ,
    "elev": 215 ,
    "name": "SALLA NARUSKA"
  },
  {
    "SID": 2746 ,
    "lat": 59.8167 ,
    "lon": 22.9167 ,
    "elev": 28 ,
    "name": "HANKO TULLINIEMI"
  },
  {
    "SID": 2747 ,
    "lat": 60.3833 ,
    "lon": 22.1 ,
    "elev": 6 ,
    "name": "TURKU RAJAKARI"
  },
  {
    "SID": 2750 ,
    "lat": 59.85 ,
    "lon": 23.25 ,
    "elev": 3 ,
    "name": "HANKO TVARMINNE"
  },
  {
    "SID": 2751 ,
    "lat": 61.6333 ,
    "lon": 21.3833 ,
    "elev": 5 ,
    "name": "PORI TAHKOLUOTO"
  },
  {
    "SID": 2752 ,
    "lat": 62.2 ,
    "lon": 21.1667 ,
    "elev": 22 ,
    "name": "KRISTIINANKAUPUNGIN MAJAKKA"
  },
  {
    "SID": 2753 ,
    "lat": 61.8333 ,
    "lon": 22.4667 ,
    "elev": 123 ,
    "name": "KANKAANPAA NIINISALO AWS"
  },
  {
    "SID": 2754 ,
    "lat": 61 ,
    "lon": 24.5 ,
    "elev": 85 ,
    "name": "HAMEENLINNA KATINEN"
  },
  {
    "SID": 2755 ,
    "lat": 64.0333 ,
    "lon": 24.7167 ,
    "elev": 76 ,
    "name": "YLIVIESKA AIRPORT"
  },
  {
    "SID": 2756 ,
    "lat": 60.3667 ,
    "lon": 23.1167 ,
    "elev": 3 ,
    "name": "SALO KARKKA"
  },
  {
    "SID": 2757 ,
    "lat": 59.8167 ,
    "lon": 23.5833 ,
    "elev": 23 ,
    "name": "TAMMISAARI JUSSARO"
  },
  {
    "SID": 2758 ,
    "lat": 60.4167 ,
    "lon": 24.4 ,
    "elev": 44 ,
    "name": "VIHTI MAASOJA"
  },
  {
    "SID": 2759 ,
    "lat": 60.3833 ,
    "lon": 25.6167 ,
    "elev": 24 ,
    "name": "PORVOO HARABACKA"
  },
  {
    "SID": 2761 ,
    "lat": 61.15 ,
    "lon": 21.3 ,
    "elev": 29 ,
    "name": "RAUMA KYLMAPIHLAJA"
  },
  {
    "SID": 2762 ,
    "lat": 61.2667 ,
    "lon": 22.25 ,
    "elev": 39 ,
    "name": "KOKEMAKI PEIPOHJA HYRKOLA"
  },
  {
    "SID": 2763 ,
    "lat": 61.4667 ,
    "lon": 23.75 ,
    "elev": 86 ,
    "name": "TAMPERE HARMALA"
  },
  {
    "SID": 2764 ,
    "lat": 67.9975 ,
    "lon": 24.2094 ,
    "elev": 270 ,
    "name": ""
  },
  {
    "SID": 2765 ,
    "lat": 61.7 ,
    "lon": 25.5167 ,
    "elev": 83 ,
    "name": "LUHANKA JUDINSALO"
  },
  {
    "SID": 2766 ,
    "lat": 63.15 ,
    "lon": 31.05 ,
    "elev": 236.5 ,
    "name": ""
  },
  {
    "SID": 2767 ,
    "lat": 61.05 ,
    "lon": 25.05 ,
    "elev": 125 ,
    "name": "LAMMI BIOLOGINEN ASEMA"
  },
  {
    "SID": 2768 ,
    "lat": 61.2167 ,
    "lon": 26.05 ,
    "elev": 100 ,
    "name": "HEINOLA PLAANI"
  },
  {
    "SID": 2769 ,
    "lat": 62.4167 ,
    "lon": 22.1833 ,
    "elev": 95 ,
    "name": "KAUHAJOKI KUJA-KOKKO"
  },
  {
    "SID": 2770 ,
    "lat": 61.85 ,
    "lon": 24.2833 ,
    "elev": 153 ,
    "name": "JUUPAJOKI HYYTIALA"
  },
  {
    "SID": 2771 ,
    "lat": 61.8833 ,
    "lon": 26.1 ,
    "elev": 146 ,
    "name": "LEIVONMAKI SAVENAHO"
  },
  {
    "SID": 2772 ,
    "lat": 62.0667 ,
    "lon": 28.5667 ,
    "elev": 80 ,
    "name": "RANTASALMI RUKKASLUOTO"
  },
  {
    "SID": 2773 ,
    "lat": 60.45 ,
    "lon": 22.1833 ,
    "elev": 7 ,
    "name": "TURKU ARTUKAINEN"
  },
  {
    "SID": 2777 ,
    "lat": 60.45 ,
    "lon": 23.65 ,
    "elev": 121 ,
    "name": "KIKALA AIRPORT"
  },
  {
    "SID": 2778 ,
    "lat": 61.8 ,
    "lon": 29.3167 ,
    "elev": 80 ,
    "name": "PUNKAHARJU LAUKANSAARI"
  },
  {
    "SID": 2780 ,
    "lat": 62.9333 ,
    "lon": 21.1833 ,
    "elev": 3 ,
    "name": "KORSNAS BREDSKARET"
  },
  {
    "SID": 2781 ,
    "lat": 62.9833 ,
    "lon": 20.75 ,
    "elev": 4 ,
    "name": "STROMMINGSBADAN"
  },
  {
    "SID": 2783 ,
    "lat": 61.1833 ,
    "lon": 25.0333 ,
    "elev": 129 ,
    "name": "LAMMI ISO-EVO"
  },
  {
    "SID": 2787 ,
    "lat": 63.0833 ,
    "lon": 24.2667 ,
    "elev": 170 ,
    "name": "ALAJARVI MOKSY"
  },
  {
    "SID": 2788 ,
    "lat": 63.15 ,
    "lon": 27.3167 ,
    "elev": 91 ,
    "name": "MAANINKA HALOLA"
  },
  {
    "SID": 2789 ,
    "lat": 63.3833 ,
    "lon": 28.6667 ,
    "elev": 166 ,
    "name": "RAUTAVAARA YLA-LUOSTA"
  },
  {
    "SID": 2790 ,
    "lat": 60.25 ,
    "lon": 20.75 ,
    "elev": 23 ,
    "name": "KUMLINGE KK"
  },
  {
    "SID": 2791 ,
    "lat": 63.2333 ,
    "lon": 29.2333 ,
    "elev": 116 ,
    "name": "JUUKA NIEMELA"
  },
  {
    "SID": 2793 ,
    "lat": 62.55 ,
    "lon": 29.6667 ,
    "elev": 80 ,
    "name": "LIPERI TUISKAVANLUOTO"
  },
  {
    "SID": 2794 ,
    "lat": 59.9167 ,
    "lon": 24.35 ,
    "elev": 2 ,
    "name": "KIRKKONUMMI MAKILUOTO"
  },
  {
    "SID": 2795 ,
    "lat": 60.1 ,
    "lon": 24.9833 ,
    "elev": 6 ,
    "name": "HELSINKI HARMAJA"
  },
  {
    "SID": 2796 ,
    "lat": 63.3167 ,
    "lon": 30.05 ,
    "elev": 98 ,
    "name": "LIEKSA LAMPELA"
  },
  {
    "SID": 2797 ,
    "lat": 64.15 ,
    "lon": 25.4333 ,
    "elev": 112 ,
    "name": "HAAPAVESI"
  },
  {
    "SID": 2798 ,
    "lat": 63.6667 ,
    "lon": 28.8333 ,
    "elev": 115 ,
    "name": "VALTIMO KK"
  },
  {
    "SID": 2799 ,
    "lat": 64.3 ,
    "lon": 30.1667 ,
    "elev": 198 ,
    "name": "KUHMO KALLIOJOKI"
  },
  {
    "SID": 2800 ,
    "lat": 64.6167 ,
    "lon": 23.9 ,
    "elev": 24 ,
    "name": "NAHKIAINEN"
  },
  {
    "SID": 2801 ,
    "lat": 69.05 ,
    "lon": 20.7833 ,
    "elev": 476 ,
    "name": "KILPISJARVI"
  },
  {
    "SID": 2803 ,
    "lat": 64.6833 ,
    "lon": 25.1 ,
    "elev": 50 ,
    "name": "RUUKKI REVONLAHTI"
  },
  {
    "SID": 2804 ,
    "lat": 65.5667 ,
    "lon": 28.25 ,
    "elev": 203 ,
    "name": "TAIVALKOSKI PALOASEMA"
  },
  {
    "SID": 2805 ,
    "lat": 69.75 ,
    "lon": 27.0333 ,
    "elev": 101 ,
    "name": "KEVO"
  },
  {
    "SID": 2807 ,
    "lat": 68.6167 ,
    "lon": 27.4167 ,
    "elev": 148 ,
    "name": "IVALO"
  },
  {
    "SID": 2808 ,
    "lat": 69.5833 ,
    "lon": 28.85 ,
    "elev": 132 ,
    "name": "INARI SEVETTIJARVI"
  },
  {
    "SID": 2811 ,
    "lat": 66.3667 ,
    "lon": 29.3167 ,
    "elev": 160 ,
    "name": "KUUSAMO KIUTAKONGAS"
  },
  {
    "SID": 2812 ,
    "lat": 66.5333 ,
    "lon": 24.65 ,
    "elev": 91 ,
    "name": "YLITORNIO MELTOSJARVI"
  },
  {
    "SID": 2813 ,
    "lat": 66.5833 ,
    "lon": 26.0167 ,
    "elev": 107 ,
    "name": "ROVANIEMI APUKKA"
  },
  {
    "SID": 2814 ,
    "lat": 66.7167 ,
    "lon": 27.1667 ,
    "elev": 209 ,
    "name": "KEMIJARVI LENTOKENTTA"
  },
  {
    "SID": 2815 ,
    "lat": 67.2833 ,
    "lon": 28.1833 ,
    "elev": 180 ,
    "name": "SAVUKOSKI KK"
  },
  {
    "SID": 2816 ,
    "lat": 68.0833 ,
    "lon": 27.1833 ,
    "elev": 249 ,
    "name": "SODANKYLA VUOTSO"
  },
  {
    "SID": 2817 ,
    "lat": 68.4333 ,
    "lon": 27.45 ,
    "elev": 432 ,
    "name": "INARI SAARISELKA AWS"
  },
  {
    "SID": 2818 ,
    "lat": 68.4833 ,
    "lon": 28.3 ,
    "elev": 255 ,
    "name": "INARI RAJAJOOSEPPI"
  },
  {
    "SID": 2819 ,
    "lat": 67.75 ,
    "lon": 29.6167 ,
    "elev": 370 ,
    "name": "SALLA VARRIOTUNTURI"
  },
  {
    "SID": 2820 ,
    "lat": 68.0667 ,
    "lon": 24.0333 ,
    "elev": 757 ,
    "name": "KITTILA LAUKUKERO"
  },
  {
    "SID": 2821 ,
    "lat": 67.9667 ,
    "lon": 24.1167 ,
    "elev": 566 ,
    "name": "KITTILA SAMMALTUNTURI"
  },
  {
    "SID": 2823 ,
    "lat": 67.9667 ,
    "lon": 23.6833 ,
    "elev": 253 ,
    "name": "MUONIO"
  },
  {
    "SID": 2824 ,
    "lat": 67.9833 ,
    "lon": 24.25 ,
    "elev": 350 ,
    "name": "KITTILA KENTTAROVA"
  },
  {
    "SID": 2825 ,
    "lat": 70.0833 ,
    "lon": 27.95 ,
    "elev": 35 ,
    "name": "UTSJOKI NUORGAM"
  },
  {
    "SID": 2826 ,
    "lat": 67.3667 ,
    "lon": 26.6333 ,
    "elev": 180 ,
    "name": "SODANKYLA AWS"
  },
  {
    "SID": 2827 ,
    "lat": 69.0667 ,
    "lon": 27.5 ,
    "elev": 124 ,
    "name": "INARI VAYLA"
  },
  {
    "SID": 2828 ,
    "lat": 60.3833 ,
    "lon": 22.55 ,
    "elev": 5 ,
    "name": "PIIKKIO YLTOINEN"
  },
  {
    "SID": 2829 ,
    "lat": 60.6 ,
    "lon": 24.8 ,
    "elev": 86 ,
    "name": "HYVINKAA MUTILA"
  },
  {
    "SID": 2830 ,
    "lat": 60.7 ,
    "lon": 26.8167 ,
    "elev": 33 ,
    "name": "ANJALANKOSKI ANJALA"
  },
  {
    "SID": 2831 ,
    "lat": 60.5333 ,
    "lon": 27.6833 ,
    "elev": 5 ,
    "name": "VIROLAHTI KOIVUNIEMI"
  },
  {
    "SID": 2832 ,
    "lat": 62.2333 ,
    "lon": 30.35 ,
    "elev": 90 ,
    "name": "TOHMAJARVI KEMIE"
  },
  {
    "SID": 2833 ,
    "lat": 62.9333 ,
    "lon": 22.4833 ,
    "elev": 32 ,
    "name": "YLISTARO PELMA"
  },
  {
    "SID": 2834 ,
    "lat": 63.8333 ,
    "lon": 27.2167 ,
    "elev": 208 ,
    "name": "VIEREMA KAARAKKALA"
  },
  {
    "SID": 2835 ,
    "lat": 68.85 ,
    "lon": 28.3 ,
    "elev": 125 ,
    "name": "INARI NELLIM"
  },
  {
    "SID": 2836 ,
    "lat": 67.3667 ,
    "lon": 26.6333 ,
    "elev": 179 ,
    "name": "SODANKYLA"
  },
  {
    "SID": 2844 ,
    "lat": 66.8 ,
    "lon": 24 ,
    "elev": 84 ,
    "name": "PELLO"
  },
  {
    "SID": 2845 ,
    "lat": 66.5667 ,
    "lon": 25.8333 ,
    "elev": 201 ,
    "name": "ROVANIEMI"
  },
  {
    "SID": 2847 ,
    "lat": 66.5 ,
    "lon": 25.7167 ,
    "elev": 82 ,
    "name": "ROVANIEMI RAUTATIEASEMA"
  },
  {
    "SID": 2849 ,
    "lat": 66.8333 ,
    "lon": 28.6833 ,
    "elev": 222 ,
    "name": "SALLA KK"
  },
  {
    "SID": 2850 ,
    "lat": 62.3222 ,
    "lon": 27.9078 ,
    "elev": 83 ,
    "name": ""
  },
  {
    "SID": 2851 ,
    "lat": 64.9333 ,
    "lon": 25.3833 ,
    "elev": 12 ,
    "name": ""
  },
  {
    "SID": 2852 ,
    "lat": 63.8444 ,
    "lon": 23.1244 ,
    "elev": 8.1 ,
    "name": ""
  },
  {
    "SID": 2857 ,
    "lat": 68.9031 ,
    "lon": 25.7364 ,
    "elev": 285 ,
    "name": ""
  },
  {
    "SID": 2858 ,
    "lat": 69.5825 ,
    "lon": 28.8942 ,
    "elev": 106 ,
    "name": ""
  },
  {
    "SID": 2859 ,
    "lat": 64.6642 ,
    "lon": 28.0567 ,
    "elev": 341 ,
    "name": ""
  },
  {
    "SID": 2860 ,
    "lat": 67.6522 ,
    "lon": 24.9017 ,
    "elev": 181 ,
    "name": ""
  },
  {
    "SID": 2862 ,
    "lat": 65.7333 ,
    "lon": 24.5167 ,
    "elev": 7 ,
    "name": "KEMI AJOS"
  },
  {
    "SID": 2863 ,
    "lat": 65.4167 ,
    "lon": 24.1333 ,
    "elev": 19 ,
    "name": "KEMI I"
  },
  {
    "SID": 2864 ,
    "lat": 65.7836 ,
    "lon": 24.5794 ,
    "elev": 14.5 ,
    "name": ""
  },
  {
    "SID": 2866 ,
    "lat": 65.4 ,
    "lon": 26.9667 ,
    "elev": 123 ,
    "name": "PUDASJARVI"
  },
  {
    "SID": 2868 ,
    "lat": 66.1667 ,
    "lon": 29.15 ,
    "elev": 488 ,
    "name": "KUUSAMO RUKATUNTURI"
  },
  {
    "SID": 2869 ,
    "lat": 65.9667 ,
    "lon": 29.1833 ,
    "elev": 263 ,
    "name": "KUUSAMO"
  },
  {
    "SID": 2872 ,
    "lat": 64.6667 ,
    "lon": 24.4167 ,
    "elev": 2 ,
    "name": "RAAHE LAPALUOTO"
  },
  {
    "SID": 2873 ,
    "lat": 65.0333 ,
    "lon": 24.5667 ,
    "elev": 8 ,
    "name": "MARJANIEM"
  },
  {
    "SID": 2874 ,
    "lat": 65.0333 ,
    "lon": 24.7333 ,
    "elev": 7 ,
    "name": "HAILUOTO"
  },
  {
    "SID": 2875 ,
    "lat": 64.9333 ,
    "lon": 25.3667 ,
    "elev": 15 ,
    "name": "OULU"
  },
  {
    "SID": 2876 ,
    "lat": 65 ,
    "lon": 25.4 ,
    "elev": 5 ,
    "name": "OULU VIHREASAARI"
  },
  {
    "SID": 2880 ,
    "lat": 65.8469 ,
    "lon": 24.1736 ,
    "elev": 9 ,
    "name": ""
  },
  {
    "SID": 2881 ,
    "lat": 65.9769 ,
    "lon": 26.3675 ,
    "elev": 163 ,
    "name": ""
  },
  {
    "SID": 2882 ,
    "lat": 68 ,
    "lon": 24.24 ,
    "elev": 340 ,
    "name": ""
  },
  {
    "SID": 2883 ,
    "lat": 64.2167 ,
    "lon": 27.755 ,
    "elev": 161.5 ,
    "name": ""
  },
  {
    "SID": 2888 ,
    "lat": 69.0483 ,
    "lon": 27.7569 ,
    "elev": 121.5 ,
    "name": ""
  },
  {
    "SID": 2889 ,
    "lat": 64.9333 ,
    "lon": 28.75 ,
    "elev": 225 ,
    "name": "SUOMUSSALMI PESIO"
  },
  {
    "SID": 2890 ,
    "lat": 69.7569 ,
    "lon": 27.0119 ,
    "elev": 76 ,
    "name": ""
  },
  {
    "SID": 2897 ,
    "lat": 64.2833 ,
    "lon": 27.6833 ,
    "elev": 136 ,
    "name": "KAJAANI"
  },
  {
    "SID": 2901 ,
    "lat": 63.7333 ,
    "lon": 22.5833 ,
    "elev": 13 ,
    "name": "MASSKAR"
  },
  {
    "SID": 2903 ,
    "lat": 63.7175 ,
    "lon": 23.1386 ,
    "elev": 25 ,
    "name": ""
  },
  {
    "SID": 2906 ,
    "lat": 60.1714 ,
    "lon": 22.7575 ,
    "elev": 13 ,
    "name": ""
  },
  {
    "SID": 2907 ,
    "lat": 64.3333 ,
    "lon": 23.6 ,
    "elev": 5 ,
    "name": "ULKOKALLA"
  },
  {
    "SID": 2910 ,
    "lat": 63.4333 ,
    "lon": 21.0667 ,
    "elev": 11 ,
    "name": "VALASSAARET"
  },
  {
    "SID": 2911 ,
    "lat": 63.05 ,
    "lon": 21.7667 ,
    "elev": 8 ,
    "name": "VAASA AIRPORT"
  },
  {
    "SID": 2913 ,
    "lat": 63.1 ,
    "lon": 23.0333 ,
    "elev": 44 ,
    "name": "KAUHAVA"
  },
  {
    "SID": 2915 ,
    "lat": 63.0833 ,
    "lon": 25.8667 ,
    "elev": 132 ,
    "name": "VIITASAARI"
  },
  {
    "SID": 2917 ,
    "lat": 63.0167 ,
    "lon": 27.8 ,
    "elev": 102 ,
    "name": "KUOPIO"
  },
  {
    "SID": 2919 ,
    "lat": 61.1981 ,
    "lon": 28.4728 ,
    "elev": 77 ,
    "name": ""
  },
  {
    "SID": 2920 ,
    "lat": 63.75 ,
    "lon": 22.5333 ,
    "elev": 19 ,
    "name": "PIETARSAARI KALLAN"
  },
  {
    "SID": 2921 ,
    "lat": 62.8833 ,
    "lon": 21.1 ,
    "elev": 13 ,
    "name": "MOIKIPAA"
  },
  {
    "SID": 2923 ,
    "lat": 60.8167 ,
    "lon": 23.5 ,
    "elev": 105 ,
    "name": "JOKIOINEN AWS"
  },
  {
    "SID": 2924 ,
    "lat": 62.5333 ,
    "lon": 24.0167 ,
    "elev": 161 ,
    "name": "AHTARI"
  },
  {
    "SID": 2926 ,
    "lat": 61.4833 ,
    "lon": 21.7833 ,
    "elev": 9 ,
    "name": ""
  },
  {
    "SID": 2927 ,
    "lat": 62.5106 ,
    "lon": 24.8078 ,
    "elev": 227 ,
    "name": ""
  },
  {
    "SID": 2928 ,
    "lat": 62.6017 ,
    "lon": 29.7239 ,
    "elev": 81 ,
    "name": ""
  },
  {
    "SID": 2929 ,
    "lat": 62.6667 ,
    "lon": 29.6333 ,
    "elev": 117 ,
    "name": "JOENSUU"
  },
  {
    "SID": 2931 ,
    "lat": 62.3336 ,
    "lon": 21.1903 ,
    "elev": 5 ,
    "name": ""
  },
  {
    "SID": 2935 ,
    "lat": 62.4 ,
    "lon": 25.6833 ,
    "elev": 145 ,
    "name": "JYVASKYLA"
  },
  {
    "SID": 2937 ,
    "lat": 61.25 ,
    "lon": 22.35 ,
    "elev": 39 ,
    "name": ""
  },
  {
    "SID": 2939 ,
    "lat": 62.7667 ,
    "lon": 30.9667 ,
    "elev": 157 ,
    "name": "ILOMANTSI MEKRIJARVI"
  },
  {
    "SID": 2942 ,
    "lat": 61.85 ,
    "lon": 22.4667 ,
    "elev": 136 ,
    "name": "NIINISALO"
  },
  {
    "SID": 2943 ,
    "lat": 61.5167 ,
    "lon": 23.75 ,
    "elev": 104 ,
    "name": "TAMPERE SIILINKARI"
  },
  {
    "SID": 2944 ,
    "lat": 61.5175 ,
    "lon": 23.7536 ,
    "elev": 112 ,
    "name": "TAMPERE/PIRKKALA"
  },
  {
    "SID": 2945 ,
    "lat": 61.85 ,
    "lon": 24.8 ,
    "elev": 145 ,
    "name": "HALLI"
  },
  {
    "SID": 2946 ,
    "lat": 61.8667 ,
    "lon": 24.8167 ,
    "elev": 144 ,
    "name": ""
  },
  {
    "SID": 2947 ,
    "lat": 61.7333 ,
    "lon": 27.3 ,
    "elev": 138 ,
    "name": "MIKKELI"
  },
  {
    "SID": 2948 ,
    "lat": 61.95 ,
    "lon": 28.95 ,
    "elev": 95 ,
    "name": "SAVONLINNA"
  },
  {
    "SID": 2949 ,
    "lat": 60.6467 ,
    "lon": 23.8058 ,
    "elev": 143 ,
    "name": ""
  },
  {
    "SID": 2950 ,
    "lat": 60.1167 ,
    "lon": 21.7 ,
    "elev": 6 ,
    "name": "FAGERHOLM"
  },
  {
    "SID": 2952 ,
    "lat": 61.4667 ,
    "lon": 21.8 ,
    "elev": 17 ,
    "name": "PORI"
  },
  {
    "SID": 2955 ,
    "lat": 62.9 ,
    "lon": 27.6333 ,
    "elev": 88.3 ,
    "name": ""
  },
  {
    "SID": 2956 ,
    "lat": 60.8906 ,
    "lon": 26.9414 ,
    "elev": 99 ,
    "name": ""
  },
  {
    "SID": 2957 ,
    "lat": 63.1 ,
    "lon": 21.65 ,
    "elev": 9 ,
    "name": ""
  },
  {
    "SID": 2958 ,
    "lat": 61.05 ,
    "lon": 28.2 ,
    "elev": 106 ,
    "name": "LAPPEENRANTA"
  },
  {
    "SID": 2959 ,
    "lat": 61.05 ,
    "lon": 28.2167 ,
    "elev": 114.8 ,
    "name": ""
  },
  {
    "SID": 2961 ,
    "lat": 61.1333 ,
    "lon": 21.3667 ,
    "elev": 10 ,
    "name": "KUUSKAJASKARI"
  },
  {
    "SID": 2963 ,
    "lat": 60.8167 ,
    "lon": 23.5 ,
    "elev": 103 ,
    "name": "JOKIOINEN"
  },
  {
    "SID": 2964 ,
    "lat": 60.7167 ,
    "lon": 21.0167 ,
    "elev": 4 ,
    "name": "KUSTAVI ISOKARI"
  },
  {
    "SID": 2965 ,
    "lat": 60.9667 ,
    "lon": 25.6333 ,
    "elev": 79 ,
    "name": "LAHTI"
  },
  {
    "SID": 2966 ,
    "lat": 60.9 ,
    "lon": 26.9333 ,
    "elev": 100 ,
    "name": "UTTI"
  },
  {
    "SID": 2967 ,
    "lat": 60.2833 ,
    "lon": 27.1833 ,
    "elev": 6 ,
    "name": "KOTKA HAAPASAARI"
  },
  {
    "SID": 2970 ,
    "lat": 60.1247 ,
    "lon": 19.9033 ,
    "elev": 6.1 ,
    "name": ""
  },
  {
    "SID": 2971 ,
    "lat": 60.15 ,
    "lon": 19.8667 ,
    "elev": 10 ,
    "name": "JOMALA"
  },
  {
    "SID": 2972 ,
    "lat": 60.5167 ,
    "lon": 22.2667 ,
    "elev": 59 ,
    "name": "TURKU"
  },
  {
    "SID": 2973 ,
    "lat": 60.4 ,
    "lon": 23.7667 ,
    "elev": 86 ,
    "name": "SUOMUSJARVI"
  },
  {
    "SID": 2974 ,
    "lat": 60.3167 ,
    "lon": 24.9667 ,
    "elev": 56 ,
    "name": "HELSINKI-VANTAA"
  },
  {
    "SID": 2975 ,
    "lat": 60.25 ,
    "lon": 25.05 ,
    "elev": 28 ,
    "name": "HELSINKI-MALMI"
  },
  {
    "SID": 2976 ,
    "lat": 60.3667 ,
    "lon": 26.9667 ,
    "elev": 12 ,
    "name": "RANKKI"
  },
  {
    "SID": 2978 ,
    "lat": 60.1833 ,
    "lon": 24.95 ,
    "elev": 4 ,
    "name": "HELSINKI KAISANIEMI"
  },
  {
    "SID": 2979 ,
    "lat": 59.5 ,
    "lon": 20.35 ,
    "elev": 16 ,
    "name": "BOGSKAR"
  },
  {
    "SID": 2980 ,
    "lat": 59.9667 ,
    "lon": 19.9667 ,
    "elev": 10 ,
    "name": "NYHAMN"
  },
  {
    "SID": 2981 ,
    "lat": 59.7833 ,
    "lon": 21.3833 ,
    "elev": 7 ,
    "name": "UTO"
  },
  {
    "SID": 2982 ,
    "lat": 59.7667 ,
    "lon": 22.95 ,
    "elev": 11 ,
    "name": "RUSSARO"
  },
  {
    "SID": 2983 ,
    "lat": 60.5167 ,
    "lon": 24.65 ,
    "elev": 111 ,
    "name": ""
  },
  {
    "SID": 2984 ,
    "lat": 59.9333 ,
    "lon": 24.0167 ,
    "elev": 12 ,
    "name": "BAGASKAR"
  },
  {
    "SID": 2987 ,
    "lat": 59.9833 ,
    "lon": 25.6 ,
    "elev": 23 ,
    "name": "KALLBADAGRUND"
  },
  {
    "SID": 2988 ,
    "lat": 60.1 ,
    "lon": 25.0667 ,
    "elev": 7 ,
    "name": "ISOSAARI"
  },
  {
    "SID": 2989 ,
    "lat": 59.95 ,
    "lon": 24.9333 ,
    "elev": 20.2 ,
    "name": ""
  },
  {
    "SID": 2991 ,
    "lat": 60.2 ,
    "lon": 25.6333 ,
    "elev": 27 ,
    "name": "PORVOO EMASALO"
  },
  {
    "SID": 2992 ,
    "lat": 60.2667 ,
    "lon": 26.45 ,
    "elev": 5 ,
    "name": "PERNAJA ORRENGRUND"
  },
  {
    "SID": 2993 ,
    "lat": 60.3 ,
    "lon": 19.1333 ,
    "elev": 11 ,
    "name": "MARKET"
  },
  {
    "SID": 2996 ,
    "lat": 60.4 ,
    "lon": 21.95 ,
    "elev": 7 ,
    "name": "RYMATTYLA RAULA"
  },
  {
    "SID": 2998 ,
    "lat": 60.2031 ,
    "lon": 24.9614 ,
    "elev": 25.3 ,
    "name": ""
  },
  {
    "SID": 3002 ,
    "lat": 60.7483 ,
    "lon": -0.8556 ,
    "elev": 15 ,
    "name": "BALTASOUND NO.2"
  },
  {
    "SID": 3005 ,
    "lat": 60.1392 ,
    "lon": -1.1847 ,
    "elev": 82 ,
    "name": "LERWICK"
  },
  {
    "SID": 3006 ,
    "lat": 60.45 ,
    "lon": -1.27 ,
    "elev": 7 ,
    "name": "SELLA NESS"
  },
  {
    "SID": 3007 ,
    "lat": 60.58 ,
    "lon": -1.27 ,
    "elev": 22 ,
    "name": "MUCKLE HOLM"
  },
  {
    "SID": 3008 ,
    "lat": 59.5264 ,
    "lon": -1.6275 ,
    "elev": 57 ,
    "name": "FAIR ISLE"
  },
  {
    "SID": 3010 ,
    "lat": 59.0825 ,
    "lon": -4.4044 ,
    "elev": 12 ,
    "name": "SULE SKERRY"
  },
  {
    "SID": 3011 ,
    "lat": 59.1167 ,
    "lon": -5.8167 ,
    "elev": 103 ,
    "name": "NORTH RONA ISLAND"
  },
  {
    "SID": 3013 ,
    "lat": 60.15 ,
    "lon": -2.07 ,
    "elev": 22 ,
    "name": "FOULA"
  },
  {
    "SID": 3014 ,
    "lat": 60.1106 ,
    "lon": -2.0647 ,
    "elev": 22 ,
    "name": "FOULA NO2"
  },
  {
    "SID": 3017 ,
    "lat": 58.9536 ,
    "lon": -2.9014 ,
    "elev": 26 ,
    "name": "KIRKWALL"
  },
  {
    "SID": 3019 ,
    "lat": 57.35 ,
    "lon": -7.3667 ,
    "elev": 4 ,
    "name": "SOUTH UIST"
  },
  {
    "SID": 3023 ,
    "lat": 57.3575 ,
    "lon": -7.385 ,
    "elev": 4 ,
    "name": "SOUTH UIST RANGE"
  },
  {
    "SID": 3026 ,
    "lat": 58.2136 ,
    "lon": -6.3189 ,
    "elev": 15 ,
    "name": "STORNOWAY AIRPORT"
  },
  {
    "SID": 3027 ,
    "lat": 57.43 ,
    "lon": -6.77 ,
    "elev": 83 ,
    "name": "WATERSTEIN"
  },
  {
    "SID": 3031 ,
    "lat": 57.725 ,
    "lon": -4.8956 ,
    "elev": 269 ,
    "name": "LOCH GLASCARNOCH"
  },
  {
    "SID": 3034 ,
    "lat": 57.8589 ,
    "lon": -5.6328 ,
    "elev": 11 ,
    "name": "AULTBEA NO2"
  },
  {
    "SID": 3035 ,
    "lat": 57.0333 ,
    "lon": -7.45 ,
    "elev": 3 ,
    "name": "BARRA"
  },
  {
    "SID": 3037 ,
    "lat": 57.2569 ,
    "lon": -5.8053 ,
    "elev": 18 ,
    "name": "SKYE:LUSA"
  },
  {
    "SID": 3039 ,
    "lat": 57.4181 ,
    "lon": -5.6886 ,
    "elev": 773 ,
    "name": "BEALACH NA BA NO2"
  },
  {
    "SID": 3040 ,
    "lat": 56.77 ,
    "lon": -6.05 ,
    "elev": 45 ,
    "name": "KILMORY"
  },
  {
    "SID": 3041 ,
    "lat": 56.8222 ,
    "lon": -4.9692 ,
    "elev": 1130 ,
    "name": "AONACH MOR"
  },
  {
    "SID": 3043 ,
    "lat": 57.4 ,
    "lon": -5.48 ,
    "elev": 59 ,
    "name": "LOCHCARRON"
  },
  {
    "SID": 3044 ,
    "lat": 58.2878 ,
    "lon": -4.4425 ,
    "elev": 81 ,
    "name": "ALTNAHARRA NO2"
  },
  {
    "SID": 3046 ,
    "lat": 57.62 ,
    "lon": -4.82 ,
    "elev": 88 ,
    "name": "LOCHLUICHART"
  },
  {
    "SID": 3047 ,
    "lat": 56.8669 ,
    "lon": -4.7081 ,
    "elev": 249 ,
    "name": "TULLOCH BRIDGE"
  },
  {
    "SID": 3055 ,
    "lat": 58.87 ,
    "lon": -3.38 ,
    "elev": 20 ,
    "name": "RACKWICK"
  },
  {
    "SID": 3057 ,
    "lat": 57.27 ,
    "lon": -4.48 ,
    "elev": 21 ,
    "name": "FOYERS"
  },
  {
    "SID": 3062 ,
    "lat": 57.8189 ,
    "lon": -3.9667 ,
    "elev": 4 ,
    "name": "TAIN RANGE"
  },
  {
    "SID": 3063 ,
    "lat": 57.2064 ,
    "lon": -3.8283 ,
    "elev": 228 ,
    "name": "AVIEMORE"
  },
  {
    "SID": 3065 ,
    "lat": 57.1161 ,
    "lon": -3.6431 ,
    "elev": 1237 ,
    "name": "CAIRNGORM SUMMIT"
  },
  {
    "SID": 3066 ,
    "lat": 57.6456 ,
    "lon": -3.5636 ,
    "elev": 5 ,
    "name": "KINLOSS"
  },
  {
    "SID": 3068 ,
    "lat": 57.7114 ,
    "lon": -3.3233 ,
    "elev": 7 ,
    "name": "LOSSIEMOUTH"
  },
  {
    "SID": 3070 ,
    "lat": 57.35 ,
    "lon": -3.35 ,
    "elev": 213 ,
    "name": "GLENLIVET"
  },
  {
    "SID": 3072 ,
    "lat": 56.8792 ,
    "lon": -3.4208 ,
    "elev": 928 ,
    "name": "CAIRNWELL"
  },
  {
    "SID": 3075 ,
    "lat": 58.4539 ,
    "lon": -3.09 ,
    "elev": 36 ,
    "name": "WICK AIRPORT"
  },
  {
    "SID": 3077 ,
    "lat": 58.32 ,
    "lon": -3.28 ,
    "elev": 85 ,
    "name": "LYBSTER"
  },
  {
    "SID": 3080 ,
    "lat": 57.0758 ,
    "lon": -2.8411 ,
    "elev": 140 ,
    "name": "ABOYNE NO2"
  },
  {
    "SID": 3088 ,
    "lat": 56.8519 ,
    "lon": -2.2658 ,
    "elev": 134 ,
    "name": "INVERBERVIE NO.2"
  },
  {
    "SID": 3091 ,
    "lat": 57.205 ,
    "lon": -2.2053 ,
    "elev": 65 ,
    "name": "DYCE"
  },
  {
    "SID": 3092 ,
    "lat": 57.5025 ,
    "lon": -1.7742 ,
    "elev": 15 ,
    "name": "PETERHEAD HARBOUR"
  },
  {
    "SID": 3094 ,
    "lat": 57.6978 ,
    "lon": -2.1228 ,
    "elev": 4 ,
    "name": "ROSEHEARTY"
  },
  {
    "SID": 3097 ,
    "lat": 56.75 ,
    "lon": -3.53 ,
    "elev": 248 ,
    "name": "ENOCHDHU"
  },
  {
    "SID": 3100 ,
    "lat": 56.5 ,
    "lon": -6.8828 ,
    "elev": 9 ,
    "name": "TIREE"
  },
  {
    "SID": 3105 ,
    "lat": 55.6814 ,
    "lon": -6.2497 ,
    "elev": 13.95 ,
    "name": "ISLAY:PORT ELLEN"
  },
  {
    "SID": 3111 ,
    "lat": 55.4408 ,
    "lon": -5.6969 ,
    "elev": 10 ,
    "name": "MACHRIHANISH"
  },
  {
    "SID": 3116 ,
    "lat": 56.4 ,
    "lon": -5 ,
    "elev": 40 ,
    "name": "DALMALLY, STRONMILCHAN"
  },
  {
    "SID": 3120 ,
    "lat": 55.7 ,
    "lon": -5.3 ,
    "elev": 46 ,
    "name": "ARRAN; LOCHRANZA"
  },
  {
    "SID": 3132 ,
    "lat": 54.8592 ,
    "lon": -4.9353 ,
    "elev": 11 ,
    "name": "WEST FREUGH"
  },
  {
    "SID": 3134 ,
    "lat": 55.9067 ,
    "lon": -4.5325 ,
    "elev": 59 ,
    "name": "GLASGOW BISHOPTON"
  },
  {
    "SID": 3136 ,
    "lat": 55.5153 ,
    "lon": -4.5847 ,
    "elev": 27 ,
    "name": "PRESTWICK, GANNET"
  },
  {
    "SID": 3138 ,
    "lat": 55.97 ,
    "lon": -4.8 ,
    "elev": 5 ,
    "name": "GREENOCK MRCC"
  },
  {
    "SID": 3139 ,
    "lat": 55.6 ,
    "lon": -4.2167 ,
    "elev": 223 ,
    "name": "SAUGHALL"
  },
  {
    "SID": 3144 ,
    "lat": 56.3264 ,
    "lon": -3.7286 ,
    "elev": 35 ,
    "name": "STRATHALLEN AIRFIELD"
  },
  {
    "SID": 3148 ,
    "lat": 56.4233 ,
    "lon": -4.32 ,
    "elev": 564 ,
    "name": "GLEN OGLE"
  },
  {
    "SID": 3153 ,
    "lat": 54.8033 ,
    "lon": -4.0081 ,
    "elev": 113 ,
    "name": "DUNDRENNAN"
  },
  {
    "SID": 3154 ,
    "lat": 55.05 ,
    "lon": -3.65 ,
    "elev": 16 ,
    "name": "DUMFRIES/DRUNGANS"
  },
  {
    "SID": 3155 ,
    "lat": 55.6272 ,
    "lon": -3.7361 ,
    "elev": 245 ,
    "name": "DRUMALBIN"
  },
  {
    "SID": 3158 ,
    "lat": 55.7086 ,
    "lon": -2.3847 ,
    "elev": 112 ,
    "name": "CHARTERHALL"
  },
  {
    "SID": 3162 ,
    "lat": 55.3119 ,
    "lon": -3.2069 ,
    "elev": 236 ,
    "name": "ESKDALEMUIR"
  },
  {
    "SID": 3164 ,
    "lat": 55.6 ,
    "lon": -3.55 ,
    "elev": 200 ,
    "name": "BIGGAR"
  },
  {
    "SID": 3166 ,
    "lat": 55.9283 ,
    "lon": -3.3444 ,
    "elev": 57 ,
    "name": "EDINBURGH GOGARBANK"
  },
  {
    "SID": 3171 ,
    "lat": 56.3767 ,
    "lon": -2.8628 ,
    "elev": 10 ,
    "name": "LEUCHARS"
  },
  {
    "SID": 3174 ,
    "lat": 56.3 ,
    "lon": -2.58 ,
    "elev": 12 ,
    "name": "FIFE NESS"
  },
  {
    "SID": 3176 ,
    "lat": 55.37 ,
    "lon": -2.52 ,
    "elev": 308 ,
    "name": "CARTERHOUSE"
  },
  {
    "SID": 3204 ,
    "lat": 54.0853 ,
    "lon": -4.6319 ,
    "elev": 16 ,
    "name": "RONALDSWAY"
  },
  {
    "SID": 3209 ,
    "lat": 54.93 ,
    "lon": -3.15 ,
    "elev": 7 ,
    "name": "DRUMBURGH"
  },
  {
    "SID": 3210 ,
    "lat": 54.5178 ,
    "lon": -3.6147 ,
    "elev": 124 ,
    "name": "ST BEES HEAD NO.2"
  },
  {
    "SID": 3212 ,
    "lat": 54.6139 ,
    "lon": -3.1567 ,
    "elev": 81 ,
    "name": "KESWICK"
  },
  {
    "SID": 3214 ,
    "lat": 54.125 ,
    "lon": -3.2581 ,
    "elev": 15 ,
    "name": "WALNEY ISLAND"
  },
  {
    "SID": 3215 ,
    "lat": 54.77 ,
    "lon": -3.32 ,
    "elev": 61 ,
    "name": "ASPATRIA"
  },
  {
    "SID": 3220 ,
    "lat": 54.9344 ,
    "lon": -2.9636 ,
    "elev": 28 ,
    "name": "CARLISLE"
  },
  {
    "SID": 3224 ,
    "lat": 55.0503 ,
    "lon": -2.5544 ,
    "elev": 285 ,
    "name": "SPADEADAM NO2"
  },
  {
    "SID": 3225 ,
    "lat": 54.5022 ,
    "lon": -2.685 ,
    "elev": 252 ,
    "name": "SHAP"
  },
  {
    "SID": 3226 ,
    "lat": 54.5725 ,
    "lon": -2.4131 ,
    "elev": 227 ,
    "name": "WARCOP RANGE"
  },
  {
    "SID": 3227 ,
    "lat": 54.6842 ,
    "lon": -2.4514 ,
    "elev": 847 ,
    "name": "GREAT DUN FELL NO2"
  },
  {
    "SID": 3230 ,
    "lat": 55.285 ,
    "lon": -2.2794 ,
    "elev": 211 ,
    "name": "REDESDALE CAMP"
  },
  {
    "SID": 3235 ,
    "lat": 54.82 ,
    "lon": -2.08 ,
    "elev": 434 ,
    "name": "BOLTSHOPE PARK"
  },
  {
    "SID": 3238 ,
    "lat": 55.0197 ,
    "lon": -1.8817 ,
    "elev": 142 ,
    "name": "ALBEMARLE"
  },
  {
    "SID": 3240 ,
    "lat": 55.4208 ,
    "lon": -1.6014 ,
    "elev": 23 ,
    "name": "BOULMER"
  },
  {
    "SID": 3246 ,
    "lat": 54.98 ,
    "lon": -1.6 ,
    "elev": 30 ,
    "name": "NEWCASTLE WEATHER CENTRE"
  },
  {
    "SID": 3257 ,
    "lat": 54.2969 ,
    "lon": -1.5331 ,
    "elev": 33 ,
    "name": "LEEMING"
  },
  {
    "SID": 3261 ,
    "lat": 54.1347 ,
    "lon": -1.4144 ,
    "elev": 33 ,
    "name": "DISHFORTH AIRFIELD"
  },
  {
    "SID": 3265 ,
    "lat": 54.2047 ,
    "lon": -1.39 ,
    "elev": 25 ,
    "name": "TOPCLIFFE"
  },
  {
    "SID": 3266 ,
    "lat": 54.0453 ,
    "lon": -1.2511 ,
    "elev": 14 ,
    "name": "LINTON-ON-OUSE"
  },
  {
    "SID": 3275 ,
    "lat": 54.5628 ,
    "lon": -0.8636 ,
    "elev": 158 ,
    "name": "LOFTUS"
  },
  {
    "SID": 3281 ,
    "lat": 54.3586 ,
    "lon": -0.6717 ,
    "elev": 262 ,
    "name": "FYLINGDALES"
  },
  {
    "SID": 3292 ,
    "lat": 54.0939 ,
    "lon": -0.1758 ,
    "elev": 15 ,
    "name": "BRIDLINGTON MRSC"
  },
  {
    "SID": 3301 ,
    "lat": 53.26 ,
    "lon": -4.3761 ,
    "elev": 60 ,
    "name": "MONA"
  },
  {
    "SID": 3302 ,
    "lat": 53.2525 ,
    "lon": -4.5364 ,
    "elev": 10 ,
    "name": "VALLEY"
  },
  {
    "SID": 3305 ,
    "lat": 53.0942 ,
    "lon": -3.9414 ,
    "elev": 216 ,
    "name": "CAPEL CURIG NO3"
  },
  {
    "SID": 3313 ,
    "lat": 53.2592 ,
    "lon": -3.5089 ,
    "elev": 77 ,
    "name": "RHYL NO2"
  },
  {
    "SID": 3314 ,
    "lat": 53.22 ,
    "lon": -3.22 ,
    "elev": 263 ,
    "name": "MOEL-Y-CRIO"
  },
  {
    "SID": 3316 ,
    "lat": 53.4972 ,
    "lon": -3.0578 ,
    "elev": 9 ,
    "name": "CROSBY"
  },
  {
    "SID": 3318 ,
    "lat": 53.7744 ,
    "lon": -3.0394 ,
    "elev": 10.4 ,
    "name": "BLACKPOOL, SQUIRES GATE"
  },
  {
    "SID": 3321 ,
    "lat": 53.1747 ,
    "lon": -2.9875 ,
    "elev": 10 ,
    "name": "HAWARDEN AIRPORT"
  },
  {
    "SID": 3330 ,
    "lat": 53.1278 ,
    "lon": -1.9814 ,
    "elev": 298 ,
    "name": "LEEK THORNCLIFFE"
  },
  {
    "SID": 3334 ,
    "lat": 53.35 ,
    "lon": -2.28 ,
    "elev": 69 ,
    "name": "MANCHESTER AIRPORT"
  },
  {
    "SID": 3339 ,
    "lat": 53.97 ,
    "lon": -2.03 ,
    "elev": 153 ,
    "name": "SKIPTON NO2"
  },
  {
    "SID": 3344 ,
    "lat": 53.8111 ,
    "lon": -1.8667 ,
    "elev": 262 ,
    "name": "BINGLEY NO.2"
  },
  {
    "SID": 3345 ,
    "lat": 53.62 ,
    "lon": -1.67 ,
    "elev": 259 ,
    "name": "EMLEY MOOR"
  },
  {
    "SID": 3346 ,
    "lat": 53.6117 ,
    "lon": -1.6669 ,
    "elev": 267 ,
    "name": "EMLEY MOOR NO 2"
  },
  {
    "SID": 3347 ,
    "lat": 53.8 ,
    "lon": -1.55 ,
    "elev": 47 ,
    "name": "---"
  },
  {
    "SID": 3348 ,
    "lat": 53.3392 ,
    "lon": -2.1544 ,
    "elev": 88 ,
    "name": "WOODFORD"
  },
  {
    "SID": 3354 ,
    "lat": 53.0056 ,
    "lon": -1.2511 ,
    "elev": 117 ,
    "name": "NOTTINGHAM, WATNALL"
  },
  {
    "SID": 3355 ,
    "lat": 53.8358 ,
    "lon": -1.1989 ,
    "elev": 9 ,
    "name": "CHURCH FENTON"
  },
  {
    "SID": 3373 ,
    "lat": 53.3069 ,
    "lon": -0.5481 ,
    "elev": 57 ,
    "name": "SCAMPTON"
  },
  {
    "SID": 3377 ,
    "lat": 53.1753 ,
    "lon": -0.5233 ,
    "elev": 68.9 ,
    "name": "WADDINGTON"
  },
  {
    "SID": 3379 ,
    "lat": 53.0311 ,
    "lon": -0.5036 ,
    "elev": 63 ,
    "name": "CRANWELL"
  },
  {
    "SID": 3382 ,
    "lat": 53.8747 ,
    "lon": -0.4417 ,
    "elev": 7 ,
    "name": "LECONFIELD"
  },
  {
    "SID": 3385 ,
    "lat": 53.4747 ,
    "lon": 0.1528 ,
    "elev": 8 ,
    "name": "DONNA NOOK NO.2"
  },
  {
    "SID": 3391 ,
    "lat": 53.0939 ,
    "lon": -0.1728 ,
    "elev": 6 ,
    "name": "CONINGSBY"
  },
  {
    "SID": 3392 ,
    "lat": 53.0883 ,
    "lon": 0.2708 ,
    "elev": 3 ,
    "name": "WAINFLEET NO2"
  },
  {
    "SID": 3402 ,
    "lat": 52.82 ,
    "lon": -4.63 ,
    "elev": 253 ,
    "name": "MYNYDD RHIW"
  },
  {
    "SID": 3405 ,
    "lat": 52.7889 ,
    "lon": -4.7414 ,
    "elev": 95 ,
    "name": "ABERDARON"
  },
  {
    "SID": 3407 ,
    "lat": 52.8 ,
    "lon": -4.12 ,
    "elev": 9 ,
    "name": "LLANBEDR"
  },
  {
    "SID": 3408 ,
    "lat": 52.95 ,
    "lon": -3.42 ,
    "elev": 228 ,
    "name": "CYNWYD"
  },
  {
    "SID": 3409 ,
    "lat": 52.9072 ,
    "lon": -3.5831 ,
    "elev": 163 ,
    "name": "BALA"
  },
  {
    "SID": 3410 ,
    "lat": 52.7572 ,
    "lon": -3.4653 ,
    "elev": 360 ,
    "name": "LAKE VYRNWY NO2"
  },
  {
    "SID": 3411 ,
    "lat": 52.57 ,
    "lon": -3.72 ,
    "elev": 244 ,
    "name": "ABERHOSAN"
  },
  {
    "SID": 3414 ,
    "lat": 52.7947 ,
    "lon": -2.6647 ,
    "elev": 72 ,
    "name": "SHAWBURY"
  },
  {
    "SID": 3453 ,
    "lat": 52.7272 ,
    "lon": -0.6558 ,
    "elev": 136 ,
    "name": "COTTESMORE"
  },
  {
    "SID": 3462 ,
    "lat": 52.6114 ,
    "lon": -0.4611 ,
    "elev": 73 ,
    "name": "WITTERING"
  },
  {
    "SID": 3469 ,
    "lat": 52.8733 ,
    "lon": 0.1386 ,
    "elev": 3 ,
    "name": "HOLBEACH NO2"
  },
  {
    "SID": 3482 ,
    "lat": 52.6514 ,
    "lon": 0.5661 ,
    "elev": 21 ,
    "name": "MARHAM"
  },
  {
    "SID": 3488 ,
    "lat": 52.9494 ,
    "lon": 1.1225 ,
    "elev": 21 ,
    "name": "WEYBOURNE"
  },
  {
    "SID": 3495 ,
    "lat": 52.77 ,
    "lon": 1.35 ,
    "elev": 20 ,
    "name": "COLTISHALL"
  },
  {
    "SID": 3502 ,
    "lat": 52.1394 ,
    "lon": -4.5711 ,
    "elev": 133 ,
    "name": "ABERPORTH"
  },
  {
    "SID": 3503 ,
    "lat": 52.3442 ,
    "lon": -3.9481 ,
    "elev": 63 ,
    "name": "TRAWSGOED"
  },
  {
    "SID": 3507 ,
    "lat": 52.0633 ,
    "lon": -3.6147 ,
    "elev": 307 ,
    "name": "SENNYBRIDGE NO2"
  },
  {
    "SID": 3520 ,
    "lat": 52.2431 ,
    "lon": -2.8858 ,
    "elev": 99 ,
    "name": "SHOBDON AIRFIELD"
  },
  {
    "SID": 3521 ,
    "lat": 52.03 ,
    "lon": -2.85 ,
    "elev": 77 ,
    "name": "MADLEY"
  },
  {
    "SID": 3522 ,
    "lat": 52.08 ,
    "lon": -2.8025 ,
    "elev": 76 ,
    "name": "HEREFORD, CREDENHILL"
  },
  {
    "SID": 3526 ,
    "lat": 52.2 ,
    "lon": -2.22 ,
    "elev": 25 ,
    "name": "---"
  },
  {
    "SID": 3527 ,
    "lat": 52.12 ,
    "lon": -2.3 ,
    "elev": 46 ,
    "name": "GREAT MALVERN"
  },
  {
    "SID": 3529 ,
    "lat": 52.1483 ,
    "lon": -2.0411 ,
    "elev": 35 ,
    "name": "PERSHORE"
  },
  {
    "SID": 3535 ,
    "lat": 52.48 ,
    "lon": -1.6908 ,
    "elev": 96 ,
    "name": "COLESHILL"
  },
  {
    "SID": 3544 ,
    "lat": 52.3589 ,
    "lon": -1.3314 ,
    "elev": 107 ,
    "name": "CHURCH LAWFORD"
  },
  {
    "SID": 3560 ,
    "lat": 52.2269 ,
    "lon": -0.4653 ,
    "elev": 85 ,
    "name": "BEDFORD"
  },
  {
    "SID": 3590 ,
    "lat": 52.1239 ,
    "lon": 0.9575 ,
    "elev": 89.79 ,
    "name": "WATTISHAM"
  },
  {
    "SID": 3591 ,
    "lat": 52.1167 ,
    "lon": 0.9667 ,
    "elev": 89 ,
    "name": "WATTISHAM"
  },
  {
    "SID": 3604 ,
    "lat": 51.7089 ,
    "lon": -5.0533 ,
    "elev": 44 ,
    "name": "MILFORD HAVEN CONSERVANCY BOARD"
  },
  {
    "SID": 3605 ,
    "lat": 51.7144 ,
    "lon": -4.3675 ,
    "elev": 6.78 ,
    "name": "PEMBREY SANDS"
  },
  {
    "SID": 3609 ,
    "lat": 51.5656 ,
    "lon": -3.9817 ,
    "elev": 43 ,
    "name": "MUMBLES HEAD"
  },
  {
    "SID": 3628 ,
    "lat": 51.5219 ,
    "lon": -2.5772 ,
    "elev": 59 ,
    "name": "FILTON"
  },
  {
    "SID": 3647 ,
    "lat": 51.8606 ,
    "lon": -1.6931 ,
    "elev": 210 ,
    "name": "LITTLE RISSINGTON"
  },
  {
    "SID": 3649 ,
    "lat": 51.7583 ,
    "lon": -1.5781 ,
    "elev": 82 ,
    "name": "BRIZE NORTON"
  },
  {
    "SID": 3658 ,
    "lat": 51.6203 ,
    "lon": -1.0986 ,
    "elev": 57 ,
    "name": "BENSON"
  },
  {
    "SID": 3660 ,
    "lat": 51.6817 ,
    "lon": -0.8069 ,
    "elev": 204 ,
    "name": "HIGH WYCOMBE HQAIR"
  },